,city,city_ascii,state_id,state_name,lat,lng,population,density,timezone,id
0,New York,New York,NY,New York,40.6943,-73.9249,18680025,10768.0,America/New_York,1840034016
1,Los Angeles,Los Angeles,CA,California,34.1141,-118.4068,12531334,3267.0,America/Los_Angeles,1840020491
2,Chicago,Chicago,IL,Illinois,41.8375,-87.6866,8586888,4576.0,America/Chicago,1840000494
3,Miami,Miami,FL,Florida,25.784,-80.2101,6076316,4945.0,America/New_York,1840015149
4,Dallas,Dallas,TX,Texas,32.7935,-96.7667,5910669,1522.0,America/Chicago,1840019440
5,Houston,Houston,TX,Texas,29.786,-95.3885,5724418,1394.0,America/Chicago,1840020925
6,Philadelphia,Philadelphia,PA,Pennsylvania,40.0077,-75.1339,5540199,4544.0,America/New_York,1840000673
7,Atlanta,Atlanta,GA,Georgia,33.7628,-84.422,5151496,1419.0,America/New_York,1840013660
8,Washington,Washington,DC,District of Columbia,38.9047,-77.0163,5066973,4434.0,America/New_York,1840006060
9,Boston,Boston,MA,Massachusetts,42.3188,-71.0852,4465966,5505.0,America/New_York,1840000455
10,Phoenix,Phoenix,AZ,Arizona,33.5722,-112.0892,4187723,1236.0,America/Phoenix,1840020568
11,Detroit,Detroit,MI,Michigan,42.3834,-83.1024,3731486,1871.0,America/Detroit,1840003971
12,San Francisco,San Francisco,CA,California,37.7558,-122.4449,3557982,7199.0,America/Los_Angeles,1840021543
13,Seattle,Seattle,WA,Washington,47.6211,-122.3244,3530752,3414.0,America/Los_Angeles,1840021117
14,San Diego,San Diego,CA,California,32.8313,-117.1222,3178495,1675.0,America/Los_Angeles,1840021990
15,Minneapolis,Minneapolis,MN,Minnesota,44.9635,-93.2678,2885614,3035.0,America/Chicago,1840007830
16,Tampa,Tampa,FL,Florida,27.9945,-82.4447,2771700,1340.0,America/New_York,1840015982
17,Brooklyn,Brooklyn,NY,New York,40.6501,-73.9496,2736074,15200.0,America/New_York,1840034030
18,Denver,Denver,CO,Colorado,39.762,-104.8758,2709398,1805.0,America/Denver,1840018789
19,Queens,Queens,NY,New York,40.7498,-73.7976,2405464,8503.0,America/New_York,1840034002
20,Baltimore,Baltimore,MD,Maryland,39.3051,-76.6144,2270087,2872.0,America/New_York,1840001592
21,Las Vegas,Las Vegas,NV,Nevada,36.2333,-115.2654,2165405,1754.0,America/Los_Angeles,1840020364
22,St. Louis,St. Louis,MO,Missouri,38.6359,-90.2451,2144317,1905.0,America/Chicago,1840001651
23,Riverside,Riverside,CA,California,33.9381,-117.3949,2112239,1556.0,America/Los_Angeles,1840020551
24,Portland,Portland,OR,Oregon,45.5371,-122.65,2072553,1881.0,America/Los_Angeles,1840019941
25,San Antonio,San Antonio,TX,Texas,29.4632,-98.5238,2036324,1183.0,America/Chicago,1840022220
26,Sacramento,Sacramento,CA,California,38.5677,-121.4685,1882358,1971.0,America/Los_Angeles,1840021491
27,San Juan,San Juan,PR,Puerto Rico,18.3985,-66.061,1854549,2982.0,America/Puerto_Rico,1630035577
28,San Jose,San Jose,CA,California,37.3012,-121.848,1797166,2229.0,America/Los_Angeles,1840021570
29,Orlando,Orlando,FL,Florida,28.4773,-81.337,1792047,994.0,America/New_York,1840015099
30,Cleveland,Cleveland,OH,Ohio,41.4764,-81.6805,1742437,1903.0,America/New_York,1840000596
31,Pittsburgh,Pittsburgh,PA,Pennsylvania,40.4397,-79.9763,1719289,2100.0,America/New_York,1840001254
32,Manhattan,Manhattan,NY,New York,40.7834,-73.9662,1694263,28653.0,America/New_York,1840034000
33,Austin,Austin,TX,Texas,30.3005,-97.7522,1685522,1165.0,America/Chicago,1840019590
34,Cincinnati,Cincinnati,OH,Ohio,39.1413,-84.506,1684800,1501.0,America/New_York,1840003814
35,Indianapolis,Indianapolis,IN,Indiana,39.7771,-86.1458,1636763,928.0,America/Indiana/Indianapolis,1840030084
36,Kansas City,Kansas City,MO,Missouri,39.1238,-94.5541,1602005,602.0,America/Chicago,1840008535
37,Columbus,Columbus,OH,Ohio,39.9862,-82.9855,1547862,1560.0,America/New_York,1840003760
38,Charlotte,Charlotte,NC,North Carolina,35.2083,-80.8303,1526465,1094.0,America/New_York,1840014557
39,Virginia Beach,Virginia Beach,VA,Virginia,36.7335,-76.0435,1475522,711.0,America/New_York,1840003871
40,Bronx,Bronx,NY,New York,40.8501,-73.8662,1472654,13356.0,America/New_York,1840033999
41,Milwaukee,Milwaukee,WI,Wisconsin,43.0642,-87.9675,1390046,2379.0,America/Chicago,1840003046
42,Providence,Providence,RI,Rhode Island,41.823,-71.4187,1204385,3764.0,America/New_York,1840003289
43,Jacksonville,Jacksonville,FL,Florida,30.3322,-81.6749,1165107,466.0,America/New_York,1840015031
44,Salt Lake City,Salt Lake City,UT,Utah,40.7776,-111.9311,1135747,700.0,America/Denver,1840021383
45,Nashville,Nashville,TN,Tennessee,36.1715,-86.7842,1081876,541.0,America/Chicago,1840036155
46,Raleigh,Raleigh,NC,North Carolina,35.8324,-78.6429,1073795,1232.0,America/New_York,1840014497
47,Memphis,Memphis,TN,Tennessee,35.1087,-89.9663,1072330,846.0,America/Chicago,1840015457
48,Richmond,Richmond,VA,Virginia,37.5295,-77.4756,1025117,1476.0,America/New_York,1840001698
49,Louisville,Louisville,KY,Kentucky,38.1663,-85.6485,1004821,906.0,America/New_York,1840030815
50,New Orleans,New Orleans,LA,Louisiana,30.0687,-89.9288,957783,891.0,America/Chicago,1840001839
51,Bridgeport,Bridgeport,CT,Connecticut,41.1918,-73.1954,948918,3485.0,America/New_York,1840004836
52,Oklahoma City,Oklahoma City,OK,Oklahoma,35.4676,-97.5136,947247,413.0,America/Chicago,1840020428
53,Buffalo,Buffalo,NY,New York,42.9018,-78.8487,926607,2446.0,America/New_York,1840000386
54,Hartford,Hartford,CT,Connecticut,41.7661,-72.6834,918434,2722.0,America/New_York,1840004773
55,Fort Worth,Fort Worth,TX,Texas,32.7817,-97.3474,892221,992.0,America/Chicago,1840020696
56,Tucson,Tucson,AZ,Arizona,32.1541,-110.8787,883127,873.0,America/Phoenix,1840022101
57,Honolulu,Honolulu,HI,Hawaii,21.3294,-157.846,834138,2214.0,Pacific/Honolulu,1840013305
58,McAllen,McAllen,TX,Texas,26.2252,-98.2467,805270,883.0,America/Chicago,1840021024
59,El Paso,El Paso,TX,Texas,31.8476,-106.43,798217,1015.0,America/Denver,1840023252
60,Omaha,Omaha,NE,Nebraska,41.2627,-96.0529,791432,1307.0,America/Chicago,1840009315
61,Albuquerque,Albuquerque,NM,New Mexico,35.1054,-106.6465,762853,1155.0,America/Denver,1840019176
62,Birmingham,Birmingham,AL,Alabama,33.5279,-86.7971,753721,553.0,America/Chicago,1840006507
63,Sarasota,Sarasota,FL,Florida,27.3387,-82.5432,727388,1518.0,America/New_York,1840015988
64,Dayton,Dayton,OH,Ohio,39.7805,-84.2003,723844,971.0,America/New_York,1840034249
65,Rochester,Rochester,NY,New York,43.168,-77.6162,720189,2227.0,America/New_York,1840000373
66,Fresno,Fresno,CA,California,36.783,-119.7939,702486,1763.0,America/Los_Angeles,1840020319
67,Tulsa,Tulsa,OK,Oklahoma,36.1283,-95.9042,698349,786.0,America/Chicago,1840021672
68,Allentown,Allentown,PA,Pennsylvania,40.5961,-75.4756,688658,2664.0,America/New_York,1840001044
69,Concord,Concord,CA,California,37.9722,-122.0016,667250,1633.0,America/Los_Angeles,1840018905
70,Cape Coral,Cape Coral,FL,Florida,26.6443,-81.9957,649339,690.0,America/New_York,1840015130
71,Charleston,Charleston,SC,South Carolina,32.8168,-79.9687,645413,461.0,America/New_York,1840015163
72,Colorado Springs,Colorado Springs,CO,Colorado,38.8674,-104.7605,621332,932.0,America/Denver,1840018825
73,Springfield,Springfield,MA,Massachusetts,42.1155,-72.5395,615728,1861.0,America/New_York,1840000466
74,Grand Rapids,Grand Rapids,MI,Michigan,42.9619,-85.6562,615273,1719.0,America/Detroit,1840002928
75,Ogden,Ogden,UT,Utah,41.2279,-111.9682,615015,1221.0,America/Denver,1840020135
76,Columbia,Columbia,SC,South Carolina,34.0378,-80.9036,609689,378.0,America/New_York,1840014730
77,Baton Rouge,Baton Rouge,LA,Louisiana,30.442,-91.1311,605449,993.0,America/Chicago,1840013941
78,Knoxville,Knoxville,TN,Tennessee,35.9692,-83.9496,603685,733.0,America/New_York,1840014486
79,Mission Viejo,Mission Viejo,CA,California,33.6096,-117.6551,600802,2091.0,America/Los_Angeles,1840020580
80,Albany,Albany,NY,New York,42.6664,-73.7987,590823,1747.0,America/New_York,1840000417
81,Akron,Akron,OH,Ohio,41.0798,-81.5219,570375,1230.0,America/New_York,1840000791
82,New Haven,New Haven,CT,Connecticut,41.3113,-72.9246,566683,2693.0,America/New_York,1840004850
83,Provo,Provo,UT,Utah,40.2457,-111.6457,563884,1082.0,America/Denver,1840020174
84,Bakersfield,Bakersfield,CA,California,35.3529,-119.0359,556892,979.0,America/Los_Angeles,1840019148
85,Murrieta,Murrieta,CA,California,33.5719,-117.1909,524133,1310.0,America/Los_Angeles,1840020553
86,Des Moines,Des Moines,IA,Iowa,41.5725,-93.6105,519180,943.0,America/Chicago,1840007069
87,Worcester,Worcester,MA,Massachusetts,42.2705,-71.8079,516483,1913.0,America/New_York,1840000434
88,Mesa,Mesa,AZ,Arizona,33.4015,-111.7178,508918,1416.0,America/Phoenix,1840020566
89,Toledo,Toledo,OH,Ohio,41.6638,-83.5827,498645,1319.0,America/New_York,1840000572
90,Palm Bay,Palm Bay,FL,Florida,27.9631,-80.6593,496640,508.0,America/New_York,1840015094
91,Staten Island,Staten Island,NY,New York,40.5834,-74.1496,495747,3286.0,America/New_York,1840034032
92,Wichita,Wichita,KS,Kansas,37.6895,-97.3443,484715,930.0,America/Chicago,1840001686
93,Harrisburg,Harrisburg,PA,Pennsylvania,40.2752,-76.8843,472261,2342.0,America/New_York,1840001288
94,Long Beach,Long Beach,CA,California,33.7977,-118.167,462081,3518.0,America/Los_Angeles,1840020490
95,Little Rock,Little Rock,AR,Arkansas,34.7256,-92.3577,446814,637.0,America/Chicago,1840015509
96,Madison,Madison,WI,Wisconsin,43.0822,-89.393,445499,1253.0,America/Chicago,1840002915
97,Greenville,Greenville,SC,South Carolina,34.8354,-82.3646,441303,905.0,America/New_York,1840013501
98,Reno,Reno,NV,Nevada,39.5497,-119.8483,440547,890.0,America/Los_Angeles,1840020121
99,Port St. Lucie,Port St. Lucie,FL,Florida,27.2796,-80.3884,435182,634.0,America/New_York,1840015119
100,Lancaster,Lancaster,PA,Pennsylvania,40.042,-76.3012,430621,3169.0,America/New_York,1840003718
101,Spokane,Spokane,WA,Washington,47.6671,-117.433,426849,1230.0,America/Los_Angeles,1840021093
102,Denton,Denton,TX,Texas,33.2175,-97.1418,425901,559.0,America/Chicago,1840019390
103,Poughkeepsie,Poughkeepsie,NY,New York,41.695,-73.9211,423386,2277.0,America/New_York,1840000500
104,Oakland,Oakland,CA,California,37.7904,-122.2166,422575,2917.0,America/Los_Angeles,1840020296
105,Winston-Salem,Winston-Salem,NC,North Carolina,36.1029,-80.261,416394,715.0,America/New_York,1840015324
106,Syracuse,Syracuse,NY,New York,43.0407,-76.1437,407942,2196.0,America/New_York,1840000378
107,Boise,Boise,ID,Idaho,43.6005,-116.2308,407550,1047.0,America/Boise,1840027142
108,Chattanooga,Chattanooga,TN,Tennessee,35.066,-85.2481,404766,491.0,America/New_York,1840014569
109,Augusta,Augusta,GA,Georgia,33.3645,-82.0708,404125,252.0,America/New_York,1840029462
110,Arlington,Arlington,TX,Texas,32.6998,-97.125,397269,1600.0,America/Chicago,1840019422
111,Stockton,Stockton,CA,California,37.9765,-121.3109,394919,1930.0,America/Los_Angeles,1840021517
112,Durham,Durham,NC,North Carolina,35.9792,-78.9022,391371,945.0,America/New_York,1840013364
113,Palm Coast,Palm Coast,FL,Florida,29.5389,-81.2457,386415,357.0,America/New_York,1840015064
114,Scranton,Scranton,PA,Pennsylvania,41.4044,-75.6649,380870,1174.0,America/New_York,1840003389
115,Aurora,Aurora,CO,Colorado,39.7083,-104.7237,379434,914.0,America/Denver,1840018794
116,Oxnard,Oxnard,CA,California,34.1964,-119.1815,378990,3023.0,America/Los_Angeles,1840020474
117,Modesto,Modesto,CA,California,37.6375,-121.0028,376717,1923.0,America/Los_Angeles,1840020287
118,Indio,Indio,CA,California,33.7346,-116.2346,367174,1045.0,America/Los_Angeles,1840019304
119,Kissimmee,Kissimmee,FL,Florida,28.3041,-81.4169,366003,1299.0,America/New_York,1840015109
120,Youngstown,Youngstown,OH,Ohio,41.0993,-80.6463,363541,730.0,America/New_York,1840003563
121,Pensacola,Pensacola,FL,Florida,30.4413,-87.1911,360711,901.0,America/Chicago,1840015005
122,Lancaster,Lancaster,CA,California,34.6935,-118.1753,353619,645.0,America/Los_Angeles,1840020516
123,Anaheim,Anaheim,CA,California,33.839,-117.8574,353085,2711.0,America/Los_Angeles,1840019322
124,Fayetteville,Fayetteville,AR,Arkansas,36.0714,-94.1661,350995,617.0,America/Chicago,1840013368
125,Jackson,Jackson,MS,Mississippi,32.3157,-90.2125,350373,566.0,America/Chicago,1840014895
126,Victorville,Victorville,CA,California,34.5277,-117.3536,350275,644.0,America/Los_Angeles,1840021731
127,Bonita Springs,Bonita Springs,FL,Florida,26.3558,-81.7859,347581,580.0,America/New_York,1840014227
128,Greensboro,Greensboro,NC,North Carolina,36.0956,-79.8271,343505,877.0,America/New_York,1840013356
129,Corpus Christi,Corpus Christi,TX,Texas,27.7254,-97.3767,343031,776.0,America/Chicago,1840019718
130,Flint,Flint,MI,Michigan,43.0236,-83.6921,339283,1108.0,America/Detroit,1840002949
131,Fayetteville,Fayetteville,NC,North Carolina,35.085,-78.9772,333366,550.0,America/New_York,1840013490
132,Santa Ana,Santa Ana,CA,California,33.7367,-117.8819,332610,4697.0,America/Los_Angeles,1840021964
133,Fort Wayne,Fort Wayne,IN,Indiana,41.0888,-85.1436,329170,935.0,America/Indiana/Indianapolis,1840008261
134,Mobile,Mobile,AL,Alabama,30.6782,-88.1162,328610,525.0,America/Chicago,1840006009
135,Lansing,Lansing,MI,Michigan,42.7142,-84.5601,326380,1158.0,America/Detroit,1840003102
136,Ann Arbor,Ann Arbor,MI,Michigan,42.2759,-83.731,323593,1657.0,America/Detroit,1840003172
137,Huntsville,Huntsville,AL,Alabama,34.6981,-86.6412,317279,353.0,America/Chicago,1840005061
138,Lexington,Lexington,KY,Kentucky,38.0423,-84.4587,316743,438.0,America/New_York,1840015211
139,Santa Rosa,Santa Rosa,CA,California,38.4458,-122.7067,313875,1619.0,America/Los_Angeles,1840021488
140,Antioch,Antioch,CA,California,37.9787,-121.796,313532,1475.0,America/Los_Angeles,1840018903
141,Asheville,Asheville,NC,North Carolina,35.5707,-82.5537,312618,783.0,America/New_York,1840013411
142,Henderson,Henderson,NV,Nevada,36.0133,-115.0381,309955,1126.0,America/Los_Angeles,1840020361
143,St. Paul,St. Paul,MN,Minnesota,44.9478,-93.1039,305877,2272.0,America/Chicago,1840008940
144,Fort Collins,Fort Collins,CO,Colorado,40.5477,-105.0656,304657,1120.0,America/Denver,1840020151
145,Lakeland,Lakeland,FL,Florida,28.0557,-81.9545,300268,643.0,America/New_York,1840015108
146,Springfield,Springfield,MO,Missouri,37.1943,-93.2916,295230,785.0,America/Chicago,1840009904
147,The Woodlands,The Woodlands,TX,Texas,30.1738,-95.5134,294943,1020.0,America/Chicago,1840019585
148,Shreveport,Shreveport,LA,Louisiana,32.4653,-93.7955,291388,680.0,America/Chicago,1840015768
149,Trenton,Trenton,NJ,New Jersey,40.2237,-74.7641,291085,4248.0,America/New_York,1840001383
150,Plano,Plano,TX,Texas,33.0502,-96.7486,288870,1555.0,America/Chicago,1840020662
151,Round Lake Beach,Round Lake Beach,IL,Illinois,42.3791,-88.0811,287012,2090.0,America/Chicago,1840011171
152,South Bend,South Bend,IN,Indiana,41.6767,-86.2696,285569,944.0,America/Indiana/Indianapolis,1840009241
153,Savannah,Savannah,GA,Georgia,32.0286,-81.1821,284429,525.0,America/New_York,1840015830
154,Newark,Newark,NJ,New Jersey,40.7245,-74.1725,281917,4508.0,America/New_York,1840002791
155,Davenport,Davenport,IA,Iowa,41.5565,-90.6053,281895,618.0,America/Chicago,1840007081
156,Myrtle Beach,Myrtle Beach,SC,South Carolina,33.7094,-78.8844,281180,552.0,America/New_York,1840014717
157,Lincoln,Lincoln,NE,Nebraska,40.8099,-96.6784,280780,1131.0,America/Chicago,1840009357
158,Rockford,Rockford,IL,Illinois,42.2596,-89.064,280337,881.0,America/Chicago,1840009132
159,Reading,Reading,PA,Pennsylvania,40.34,-75.9267,278693,3464.0,America/New_York,1840001185
160,Canton,Canton,OH,Ohio,40.8078,-81.3676,277769,1039.0,America/New_York,1840000963
161,Irvine,Irvine,CA,California,33.6772,-117.7738,272694,1604.0,America/Los_Angeles,1840019325
162,Eugene,Eugene,OR,Oregon,44.0564,-123.1174,270013,1489.0,America/Los_Angeles,1840020007
163,Chula Vista,Chula Vista,CA,California,32.6281,-117.0144,268779,2090.0,America/Los_Angeles,1840019350
164,St. Petersburg,St. Petersburg,FL,Florida,27.7931,-82.6652,264001,1648.0,America/New_York,1840015977
165,Salem,Salem,OR,Oregon,44.9233,-123.0244,263571,1359.0,America/Los_Angeles,1840021224
166,Lafayette,Lafayette,LA,Louisiana,30.2082,-92.0325,263551,876.0,America/Chicago,1840015044
167,Laredo,Laredo,TX,Texas,27.5625,-99.4874,262774,944.0,America/Chicago,1840021002
168,Jersey City,Jersey City,NJ,New Jersey,40.7184,-74.0686,262652,6878.0,America/New_York,1840003600
169,Santa Clarita,Santa Clarita,CA,California,34.4175,-118.4964,260999,1159.0,America/Los_Angeles,1840021864
170,Aguadilla,Aguadilla,PR,Puerto Rico,18.4382,-67.1537,260331,1681.0,America/Puerto_Rico,1630035605
171,Wilmington,Wilmington,NC,North Carolina,34.2099,-77.8866,260170,917.0,America/New_York,1840015576
172,Lubbock,Lubbock,TX,Texas,33.5657,-101.8879,257835,737.0,America/Chicago,1840020604
173,Chandler,Chandler,AZ,Arizona,33.2825,-111.8514,257076,1520.0,America/Phoenix,1840019309
174,Scottsdale,Scottsdale,AZ,Arizona,33.6872,-111.8651,254995,535.0,America/Phoenix,1840021940
175,Tallahassee,Tallahassee,FL,Florida,30.4551,-84.2527,254250,737.0,America/New_York,1840015913
176,Montgomery,Montgomery,AL,Alabama,32.3482,-86.2668,253540,480.0,America/Chicago,1840008353
177,Peoria,Peoria,IL,Illinois,40.752,-89.6154,253461,906.0,America/Chicago,1840009373
178,Glendale,Glendale,AZ,Arizona,33.5791,-112.2311,250290,1568.0,America/Phoenix,1840020563
179,Columbus,Columbus,GA,Georgia,32.51,-84.8771,249510,348.0,America/New_York,1840014887
180,Anchorage,Anchorage,AK,Alaska,61.1508,-149.1091,248902,66.0,America/Anchorage,1840023385
181,Gilbert,Gilbert,AZ,Arizona,33.31,-111.7463,248349,1398.0,America/Phoenix,1840021947
182,North Las Vegas,North Las Vegas,NV,Nevada,36.2883,-115.0888,247248,942.0,America/Los_Angeles,1840020363
183,Avondale,Avondale,AZ,Arizona,33.3873,-112.3235,247103,703.0,America/Phoenix,1840019310
184,McKinney,McKinney,TX,Texas,33.2016,-96.667,244536,1102.0,America/Chicago,1840020657
185,Norfolk,Norfolk,VA,Virginia,36.8945,-76.259,244300,1770.0,America/New_York,1840003869
186,Chesapeake,Chesapeake,VA,Virginia,36.6778,-76.3023,242647,276.0,America/New_York,1840003874
187,Kennewick,Kennewick,WA,Washington,46.1978,-119.1732,240876,1162.0,America/Los_Angeles,1840018481
188,Winter Haven,Winter Haven,FL,Florida,28.0118,-81.7014,240768,510.0,America/New_York,1840015970
189,Irving,Irving,TX,Texas,32.8583,-96.9702,240475,1386.0,America/Chicago,1840019438
190,Garland,Garland,TX,Texas,32.91,-96.6304,238622,1612.0,America/Chicago,1840020707
191,York,York,PA,Pennsylvania,39.9651,-76.7315,236818,3211.0,America/New_York,1840001472
192,Concord,Concord,NC,North Carolina,35.3933,-80.6369,236626,572.0,America/New_York,1840014559
193,Arlington,Arlington,VA,Virginia,38.8786,-77.1011,236434,3511.0,America/New_York,1840006112
194,Atlantic City,Atlantic City,NJ,New Jersey,39.3797,-74.4527,236314,1356.0,America/New_York,1840003798
195,Visalia,Visalia,CA,California,36.3276,-119.3269,235184,1354.0,America/Los_Angeles,1840021639
196,Fremont,Fremont,CA,California,37.5265,-121.9843,234829,1157.0,America/Los_Angeles,1840020292
197,Hialeah,Hialeah,FL,Florida,25.8696,-80.3045,233876,4184.0,America/New_York,1840015157
198,Nashua,Nashua,NH,New Hampshire,42.7491,-71.491,231409,1115.0,America/New_York,1840002984
199,Killeen,Killeen,TX,Texas,31.0753,-97.7297,231312,1045.0,America/Chicago,1840020854
200,Gulfport,Gulfport,MS,Mississippi,30.4274,-89.0704,230156,497.0,America/Chicago,1840013947
201,Brownsville,Brownsville,TX,Texas,25.9975,-97.458,229387,534.0,America/Matamoros,1840019743
202,Evansville,Evansville,IN,Indiana,37.9881,-87.5341,227338,965.0,America/Chicago,1840013730
203,Appleton,Appleton,WI,Wisconsin,44.278,-88.3892,225728,1150.0,America/Chicago,1840002400
204,Navarre,Navarre,FL,Florida,30.4174,-86.8907,223951,625.0,America/Chicago,1840027017
205,Bel Air South,Bel Air South,MD,Maryland,39.5022,-76.3113,222834,998.0,America/New_York,1840073592
206,Kalamazoo,Kalamazoo,MI,Michigan,42.2749,-85.5882,220561,1189.0,America/Detroit,1840003185
207,Bremerton,Bremerton,WA,Washington,47.5436,-122.7121,219538,560.0,America/Los_Angeles,1840018410
208,Spring Valley,Spring Valley,NV,Nevada,36.0952,-115.2636,218697,2378.0,America/Los_Angeles,1840033832
209,San Bernardino,San Bernardino,CA,California,34.1416,-117.2943,216784,1347.0,America/Los_Angeles,1840021728
210,Roanoke,Roanoke,VA,Virginia,37.2785,-79.9581,216388,900.0,America/New_York,1840003858
211,Spartanburg,Spartanburg,SC,South Carolina,34.9442,-81.9251,216021,720.0,America/New_York,1840015482
212,Tacoma,Tacoma,WA,Washington,47.2431,-122.4531,215766,1675.0,America/Los_Angeles,1840021129
213,Enterprise,Enterprise,NV,Nevada,36.0091,-115.2278,214591,1255.0,America/Los_Angeles,1840033827
214,Green Bay,Green Bay,WI,Wisconsin,44.5148,-87.9895,214438,887.0,America/Chicago,1840002344
215,Portland,Portland,ME,Maine,43.6773,-70.2715,213986,1195.0,America/New_York,1840000327
216,Thousand Oaks,Thousand Oaks,CA,California,34.1914,-118.8756,212806,891.0,America/Los_Angeles,1840021844
217,Fontana,Fontana,CA,California,34.0968,-117.4599,212704,1906.0,America/Los_Angeles,1840020402
218,Hickory,Hickory,NC,North Carolina,35.741,-81.3223,211042,515.0,America/New_York,1840014524
219,Moreno Valley,Moreno Valley,CA,California,33.9244,-117.2045,208751,1570.0,America/Los_Angeles,1840020552
220,Deltona,Deltona,FL,Florida,28.905,-81.2137,205914,950.0,America/New_York,1840015072
221,Fargo,Fargo,ND,North Dakota,46.8651,-96.8292,205472,957.0,America/Chicago,1840000177
222,Santa Barbara,Santa Barbara,CA,California,34.4285,-119.7202,205215,1799.0,America/Los_Angeles,1840021829
223,College Station,College Station,TX,Texas,30.5852,-96.2959,203848,873.0,America/Chicago,1840019570
224,Gainesville,Gainesville,FL,Florida,29.6804,-82.3459,203541,816.0,America/New_York,1840014022
225,Amarillo,Amarillo,TX,Texas,35.1984,-101.8316,202902,751.0,America/Chicago,1840019156
226,Norwich,Norwich,CT,Connecticut,41.5495,-72.0882,201726,538.0,America/New_York,1840004828
227,Olympia,Olympia,WA,Washington,47.0417,-122.8959,200836,1108.0,America/Los_Angeles,1840019865
228,Yonkers,Yonkers,NY,New York,40.9466,-73.8673,200183,4292.0,America/New_York,1840003478
229,Huntington Beach,Huntington Beach,CA,California,33.696,-118.0018,199778,2857.0,America/Los_Angeles,1840020578
230,Glendale,Glendale,CA,California,34.1819,-118.2468,199357,2525.0,America/Los_Angeles,1840020483
231,Aurora,Aurora,IL,Illinois,41.7638,-88.2902,199326,1709.0,America/Chicago,1840007034
232,Huntington,Huntington,WV,West Virginia,38.4109,-82.4345,199133,1098.0,America/New_York,1840006211
233,Sunrise Manor,Sunrise Manor,NV,Nevada,36.1783,-115.0487,198187,2269.0,America/Los_Angeles,1840033833
234,North Port,North Port,FL,Florida,27.0576,-82.1977,195848,267.0,America/New_York,1840015120
235,Hagerstown,Hagerstown,MD,Maryland,39.6401,-77.7217,194602,1270.0,America/New_York,1840005613
236,Grand Prairie,Grand Prairie,TX,Texas,32.6871,-97.0208,193835,1031.0,America/Chicago,1840020709
237,Overland Park,Overland Park,KS,Kansas,38.887,-94.687,193412,993.0,America/Chicago,1840003834
238,Paradise,Paradise,NV,Nevada,36.0872,-115.1355,193150,1758.0,America/Los_Angeles,1840033743
239,Tempe,Tempe,AZ,Arizona,33.3881,-111.9319,191607,1852.0,America/Phoenix,1840021942
240,Salinas,Salinas,CA,California,36.6883,-121.6317,190345,2564.0,America/Los_Angeles,1840021632
241,Erie,Erie,PA,Pennsylvania,42.1167,-80.0733,189513,1948.0,America/New_York,1840000478
242,Cedar Rapids,Cedar Rapids,IA,Iowa,41.9662,-91.6783,188618,712.0,America/Chicago,1840000471
243,Waterbury,Waterbury,CT,Connecticut,41.5582,-73.0361,188607,1460.0,America/New_York,1840004851
244,Frisco,Frisco,TX,Texas,33.156,-96.8216,188387,1059.0,America/Chicago,1840020654
245,Waco,Waco,TX,Texas,31.5599,-97.1882,186695,599.0,America/Chicago,1840022140
246,Gastonia,Gastonia,NC,North Carolina,35.2494,-81.1854,184902,572.0,America/New_York,1840013468
247,Clarksville,Clarksville,TN,Tennessee,36.5692,-87.3413,183798,606.0,America/Chicago,1840014421
248,Vancouver,Vancouver,WA,Washington,45.6366,-122.5967,182792,1448.0,America/Los_Angeles,1840021189
249,Lorain,Lorain,OH,Ohio,41.4409,-82.184,182015,1044.0,America/New_York,1840000644
250,Nampa,Nampa,ID,Idaho,43.5844,-116.5638,181887,1116.0,America/Boise,1840020041
251,Fort Lauderdale,Fort Lauderdale,FL,Florida,26.1412,-80.1464,181818,2029.0,America/New_York,1840014236
252,Hemet,Hemet,CA,California,33.7341,-116.9969,180380,1116.0,America/Los_Angeles,1840020550
253,Newport News,Newport News,VA,Virginia,37.1051,-76.5185,179582,1005.0,America/New_York,1840003862
254,Ontario,Ontario,CA,California,34.0393,-117.6064,178194,1376.0,America/Los_Angeles,1840020410
255,Rancho Cucamonga,Rancho Cucamonga,CA,California,34.1247,-117.5667,178060,1714.0,America/Los_Angeles,1840020411
256,Vallejo,Vallejo,CA,California,38.1125,-122.2342,177255,1539.0,America/Los_Angeles,1840021499
257,Oceanside,Oceanside,CA,California,33.2247,-117.3083,175694,1643.0,America/Los_Angeles,1840020623
258,Vero Beach South,Vero Beach South,FL,Florida,27.6132,-80.4163,174748,939.0,America/New_York,1840073853
259,Ocala,Ocala,FL,Florida,29.178,-82.1511,174618,490.0,America/New_York,1840015067
260,Sioux Falls,Sioux Falls,SD,South Dakota,43.5396,-96.7311,173921,883.0,America/Chicago,1840002648
261,Danbury,Danbury,CT,Connecticut,41.4015,-73.4709,173508,777.0,America/New_York,1840004837
262,Elk Grove,Elk Grove,CA,California,38.4161,-121.3842,173370,1594.0,America/Los_Angeles,1840020245
263,High Point,High Point,NC,North Carolina,35.991,-79.9937,173324,770.0,America/New_York,1840014479
264,Garden Grove,Garden Grove,CA,California,33.7787,-117.9601,172800,3715.0,America/Los_Angeles,1840020577
265,Peoria,Peoria,AZ,Arizona,33.7843,-112.2989,172109,377.0,America/Phoenix,1840020567
266,Pembroke Pines,Pembroke Pines,FL,Florida,26.0128,-80.3382,171979,2031.0,America/New_York,1840015141
267,Medford,Medford,OR,Oregon,42.3372,-122.854,171660,1224.0,America/Los_Angeles,1840020076
268,Murfreesboro,Murfreesboro,TN,Tennessee,35.849,-86.4121,169243,869.0,America/Chicago,1840014495
269,Cary,Cary,NC,North Carolina,35.7819,-78.8195,169177,1102.0,America/New_York,1840016196
270,Lafayette,Lafayette,IN,Indiana,40.3991,-86.8593,168164,953.0,America/Indiana/Indianapolis,1840008354
271,Corona,Corona,CA,California,33.8616,-117.5649,168112,1625.0,America/Los_Angeles,1840019305
272,Santa Cruz,Santa Cruz,CA,California,36.9789,-122.0346,165933,1970.0,America/Los_Angeles,1840021579
273,Spring Hill,Spring Hill,FL,Florida,28.4798,-82.53,165526,732.0,America/New_York,1840014105
274,Muskegon,Muskegon,MI,Michigan,43.2281,-86.2562,164136,1018.0,America/Detroit,1840002870
275,Manchester,Manchester,NH,New Hampshire,42.9848,-71.4447,163488,1312.0,America/New_York,1840002983
276,Marysville,Marysville,WA,Washington,48.0809,-122.1561,162700,1295.0,America/Los_Angeles,1840019789
277,Springfield,Springfield,IL,Illinois,39.7709,-89.654,162348,726.0,America/Chicago,1840009517
278,Frederick,Frederick,MD,Maryland,39.4337,-77.4141,158866,1158.0,America/New_York,1840005710
279,Hayward,Hayward,CA,California,37.6328,-122.0766,158817,1338.0,America/Los_Angeles,1840020293
280,Alexandria,Alexandria,VA,Virginia,38.8185,-77.0861,158309,4092.0,America/New_York,1840003837
281,Bayamón,Bayamon,PR,Puerto Rico,18.3794,-66.1635,157517,2250.0,America/Puerto_Rico,1630035622
282,Port Arthur,Port Arthur,TX,Texas,29.8554,-93.9264,156988,273.0,America/Chicago,1840020919
283,Lakewood,Lakewood,CO,Colorado,39.6977,-105.1172,155733,1383.0,America/Denver,1840020198
284,Fredericksburg,Fredericksburg,VA,Virginia,38.2992,-77.4872,155414,1073.0,America/New_York,1840003845
285,Leesburg,Leesburg,FL,Florida,28.7672,-81.8962,154301,232.0,America/New_York,1840015083
286,Hollywood,Hollywood,FL,Florida,26.0293,-80.1679,153834,2177.0,America/New_York,1840015144
287,Palmdale,Palmdale,CA,California,34.5944,-118.1057,153240,557.0,America/Los_Angeles,1840020502
288,Macon,Macon,GA,Georgia,32.8065,-83.6974,153026,236.0,America/New_York,1840043455
289,Kansas City,Kansas City,KS,Kansas,39.1235,-94.7443,153014,473.0,America/Chicago,1840001626
290,Champaign,Champaign,IL,Illinois,40.1142,-88.2737,152940,1486.0,America/Chicago,1840007239
291,Sunnyvale,Sunnyvale,CA,California,37.3836,-122.0255,152569,2670.0,America/Los_Angeles,1840021573
292,Pasadena,Pasadena,TX,Texas,29.6575,-95.1498,152537,1348.0,America/Chicago,1840020930
293,Pomona,Pomona,CA,California,34.0585,-117.7626,151124,2538.0,America/Los_Angeles,1840020507
294,Escondido,Escondido,CA,California,33.1348,-117.0723,150396,1554.0,America/Los_Angeles,1840020620
295,Mauldin,Mauldin,SC,South Carolina,34.7821,-82.3032,149687,842.0,America/New_York,1840015476
296,New Bedford,New Bedford,MA,Massachusetts,41.6697,-70.9428,149570,1840.0,America/New_York,1840003219
297,Panama City,Panama City,FL,Florida,30.1995,-85.6003,149366,395.0,America/Chicago,1840015034
298,Tuscaloosa,Tuscaloosa,AL,Alabama,33.2348,-87.5268,149302,627.0,America/Chicago,1840005563
299,Warner Robins,Warner Robins,GA,Georgia,32.5961,-83.6527,148171,786.0,America/New_York,1840015800
300,Naperville,Naperville,IL,Illinois,41.748,-88.1659,147734,1459.0,America/Chicago,1840008143
301,Merced,Merced,CA,California,37.3057,-120.4779,147690,1396.0,America/Los_Angeles,1840020313
302,Elkhart,Elkhart,IN,Indiana,41.6916,-85.9627,147679,739.0,America/Indiana/Indianapolis,1840008187
303,Joliet,Joliet,IL,Illinois,41.5188,-88.1499,147323,881.0,America/Chicago,1840008192
304,Binghamton,Binghamton,NY,New York,42.1014,-75.9093,146870,1651.0,America/New_York,1840000460
305,Houma,Houma,LA,Louisiana,29.58,-90.7059,146665,882.0,America/Chicago,1840015063
306,Bellevue,Bellevue,WA,Washington,47.5951,-122.1535,146145,1686.0,America/Los_Angeles,1840018417
307,Topeka,Topeka,KS,Kansas,39.0346,-95.6955,145717,790.0,America/Chicago,1840001621
308,Paterson,Paterson,NJ,New Jersey,40.9147,-74.1624,145484,6676.0,America/New_York,1840000838
309,Lake Charles,Lake Charles,LA,Louisiana,30.201,-93.2111,145029,658.0,America/Chicago,1840015039
310,Torrance,Torrance,CA,California,33.8346,-118.3416,144430,2717.0,America/Los_Angeles,1840021873
311,Thornton,Thornton,CO,Colorado,39.9197,-104.9438,144186,1549.0,America/Denver,1840021422
312,Tyler,Tyler,TX,Texas,32.3184,-95.3062,143616,711.0,America/Chicago,1840022076
313,Athens,Athens,GA,Georgia,33.9508,-83.3689,143081,414.0,America/New_York,1840029463
314,Beaumont,Beaumont,TX,Texas,30.0849,-94.1451,142759,549.0,America/Chicago,1840019612
315,Pueblo,Pueblo,CO,Colorado,38.2701,-104.6114,142726,779.0,America/Denver,1840020255
316,Odessa,Odessa,TX,Texas,31.8801,-102.3448,142581,926.0,America/Chicago,1840020794
317,Mesquite,Mesquite,TX,Texas,32.7602,-96.5865,142429,1134.0,America/Chicago,1840020713
318,Fairfield,Fairfield,CA,California,38.2583,-122.0335,142042,1081.0,America/Los_Angeles,1840020253
319,Pasadena,Pasadena,CA,California,34.1597,-118.139,142017,2388.0,America/Los_Angeles,1840020505
320,Charleston,Charleston,WV,West Virginia,38.3484,-81.6322,141640,579.0,America/New_York,1840006196
321,Fullerton,Fullerton,CA,California,33.8841,-117.9279,141061,2429.0,America/Los_Angeles,1840020576
322,Miramar,Miramar,FL,Florida,25.9773,-80.3351,140479,1879.0,America/New_York,1840015137
323,Midland,Midland,TX,Texas,32.0243,-102.1147,140111,722.0,America/Chicago,1840020792
324,Gainesville,Gainesville,GA,Georgia,34.2902,-83.8294,139507,479.0,America/New_York,1840013612
325,Orange,Orange,CA,California,33.8038,-117.8218,139322,2095.0,America/Los_Angeles,1840020582
326,Olathe,Olathe,KS,Kansas,38.8833,-94.82,139216,868.0,America/Chicago,1840003833
327,Santa Maria,Santa Maria,CA,California,34.9333,-120.4431,139072,1786.0,America/Los_Angeles,1840021830
328,Surprise,Surprise,AZ,Arizona,33.6815,-112.4515,139007,486.0,America/Phoenix,1840021941
329,Roseville,Roseville,CA,California,38.7703,-121.3196,138860,1216.0,America/Los_Angeles,1840020233
330,Metairie,Metairie,LA,Louisiana,29.9977,-90.178,138511,2299.0,America/Chicago,1840013994
331,Yuma,Yuma,AZ,Arizona,32.5995,-114.5491,137612,311.0,America/Phoenix,1840021998
332,Carrollton,Carrollton,TX,Texas,32.989,-96.8999,137319,1446.0,America/Chicago,1840019436
333,Burlington,Burlington,NC,North Carolina,36.076,-79.4685,137096,699.0,America/New_York,1840013362
334,West Valley City,West Valley City,UT,Utah,40.6886,-112.0123,135610,1461.0,America/Denver,1840021389
335,Hampton,Hampton,VA,Virginia,37.0551,-76.363,135169,1014.0,America/New_York,1840003866
336,Racine,Racine,WI,Wisconsin,42.7274,-87.8135,134679,1918.0,America/Chicago,1840002493
337,Greeley,Greeley,CO,Colorado,40.4152,-104.7706,134417,847.0,America/Denver,1840020149
338,Harlingen,Harlingen,TX,Texas,26.1916,-97.6977,134306,625.0,America/Chicago,1840021036
339,Carolina,Carolina,PR,Puerto Rico,18.4054,-65.9792,134207,2502.0,America/Puerto_Rico,1630035637
340,Warren,Warren,MI,Michigan,42.4934,-83.027,134188,1507.0,America/Detroit,1840002418
341,Grand Junction,Grand Junction,CO,Colorado,39.0877,-108.5673,134074,606.0,America/Denver,1840020230
342,Coral Springs,Coral Springs,FL,Florida,26.2702,-80.2591,133370,2252.0,America/New_York,1840015134
343,Columbia,Columbia,MO,Missouri,38.9472,-92.3268,132806,711.0,America/Chicago,1840007391
344,Bloomington,Bloomington,IL,Illinois,40.4757,-88.9703,132710,1106.0,America/Chicago,1840007207
345,Sterling Heights,Sterling Heights,MI,Michigan,42.5809,-83.0305,132296,1401.0,America/Detroit,1840003094
346,Stamford,Stamford,CT,Connecticut,41.1039,-73.5585,130057,1334.0,America/New_York,1840004841
347,Kent,Kent,WA,Washington,47.3887,-122.2128,130038,1487.0,America/Los_Angeles,1840018424
348,Bellingham,Bellingham,WA,Washington,48.7548,-122.469,129653,1246.0,America/Los_Angeles,1840018346
349,Las Cruces,Las Cruces,NM,New Mexico,32.3265,-106.7893,129538,516.0,America/Denver,1840020683
350,Greenville,Greenville,NC,North Carolina,35.5943,-77.376,129374,979.0,America/New_York,1840013407
351,Round Rock,Round Rock,TX,Texas,30.527,-97.6642,128812,1321.0,America/Chicago,1840020879
352,Elizabeth,Elizabeth,NJ,New Jersey,40.6658,-74.1913,128484,4027.0,America/New_York,1840003613
353,South Lyon,South Lyon,MI,Michigan,42.4614,-83.6526,128071,1219.0,America/Detroit,1840002432
354,Simi Valley,Simi Valley,CA,California,34.2663,-118.749,126782,1168.0,America/Los_Angeles,1840021843
355,Santa Clara,Santa Clara,CA,California,37.3646,-121.968,126723,2677.0,America/Los_Angeles,1840021571
356,Yakima,Yakima,WA,Washington,46.5923,-120.5496,126487,1302.0,America/Los_Angeles,1840021154
357,Johnson City,Johnson City,TN,Tennessee,36.3406,-82.3806,126265,596.0,America/New_York,1840014462
358,Dover,Dover,DE,Delaware,39.161,-75.5202,125931,617.0,America/New_York,1840005810
359,Pearland,Pearland,TX,Texas,29.5581,-95.3218,125817,998.0,America/Chicago,1840020979
360,Lynchburg,Lynchburg,VA,Virginia,37.4003,-79.1909,125710,638.0,America/New_York,1840003855
361,Fort Smith,Fort Smith,AR,Arkansas,35.3495,-94.3695,125306,529.0,America/Chicago,1840013456
362,Yuba City,Yuba City,CA,California,39.1357,-121.6383,124815,1718.0,America/Los_Angeles,1840021463
363,Lehigh Acres,Lehigh Acres,FL,Florida,26.612,-81.6388,124523,518.0,America/New_York,1840014220
364,Kenosha,Kenosha,WI,Wisconsin,42.5865,-87.8773,123865,1359.0,America/Chicago,1840003160
365,Arecibo,Arecibo,PR,Puerto Rico,18.4491,-66.7387,123499,970.0,America/Puerto_Rico,1630023566
366,Berkeley,Berkeley,CA,California,37.8722,-122.276,123065,4554.0,America/Los_Angeles,1840018914
367,Boulder,Boulder,CO,Colorado,40.0248,-105.2524,122549,1595.0,America/Denver,1840018774
368,Texas City,Texas City,TX,Texas,29.4154,-94.9682,122017,288.0,America/Chicago,1840022234
369,Iowa City,Iowa City,IA,Iowa,41.6559,-91.5303,120928,1144.0,America/Chicago,1840000532
370,Waldorf,Waldorf,MD,Maryland,38.6085,-76.9194,120707,827.0,America/New_York,1840006175
371,East Los Angeles,East Los Angeles,CA,California,34.0326,-118.1691,120504,6242.0,America/Los_Angeles,1840019206
372,Redding,Redding,CA,California,40.5698,-122.365,120370,595.0,America/Los_Angeles,1840020141
373,Arvada,Arvada,CO,Colorado,39.832,-105.151,120229,1193.0,America/Denver,1840018788
374,The Villages,The Villages,FL,Florida,28.9034,-81.9887,119296,963.0,America/New_York,1840014065
375,Saginaw,Saginaw,MI,Michigan,43.4199,-83.9501,118845,1093.0,America/Detroit,1840002813
376,Ponce,Ponce,PR,Puerto Rico,18.0127,-66.6212,118641,1497.0,America/Puerto_Rico,1630023669
377,Richardson,Richardson,TX,Texas,32.9716,-96.7093,118583,1602.0,America/Chicago,1840020710
378,Sugar Land,Sugar Land,TX,Texas,29.5935,-95.6358,118563,1131.0,America/Chicago,1840022217
379,Leominster,Leominster,MA,Massachusetts,42.5209,-71.7717,118190,557.0,America/New_York,1840000437
380,St. Cloud,St. Cloud,MN,Minnesota,45.534,-94.1718,118139,660.0,America/Chicago,1840008881
381,Duluth,Duluth,MN,Minnesota,46.7756,-92.1393,117934,462.0,America/Chicago,1840007685
382,Cambridge,Cambridge,MA,Massachusetts,42.3759,-71.1185,117822,7115.0,America/New_York,1840000429
383,Monroe,Monroe,LA,Louisiana,32.5185,-92.0774,117197,623.0,America/Chicago,1840014881
384,Independence,Independence,MO,Missouri,39.0871,-94.3501,117139,579.0,America/Chicago,1840008534
385,Rochester,Rochester,MN,Minnesota,44.0154,-92.478,116962,814.0,America/Chicago,1840008987
386,Rock Hill,Rock Hill,SC,South Carolina,34.9415,-81.0241,116746,736.0,America/New_York,1840014618
387,Bloomington,Bloomington,IN,Indiana,39.1637,-86.5257,116615,1407.0,America/Indiana/Indianapolis,1840007376
388,Billings,Billings,MT,Montana,45.7891,-108.5526,116593,945.0,America/Denver,1840018496
389,Seaside,Seaside,CA,California,36.6224,-121.8199,116189,1473.0,America/Los_Angeles,1840021634
390,Clearwater,Clearwater,FL,Florida,27.979,-82.7623,115975,1716.0,America/New_York,1840015110
391,Brandon,Brandon,FL,Florida,27.9367,-82.3,115909,1350.0,America/New_York,1840014151
392,Burlington,Burlington,VT,Vermont,44.4876,-73.2316,115682,1596.0,America/New_York,1840002310
393,Pottstown,Pottstown,PA,Pennsylvania,40.2508,-75.6445,115413,1801.0,America/New_York,1840001373
394,Waterloo,Waterloo,IA,Iowa,42.4918,-92.3522,115266,424.0,America/Chicago,1840000440
395,West Jordan,West Jordan,UT,Utah,40.6024,-112.0008,115181,1375.0,America/Denver,1840021388
396,Coeur d'Alene,Coeur d'Alene,ID,Idaho,47.704,-116.7936,114880,1234.0,America/Los_Angeles,1840018402
397,Westminster,Westminster,CO,Colorado,39.8837,-105.0624,114832,1403.0,America/Denver,1840021423
398,St. George,St. George,UT,Utah,37.0758,-113.5752,114612,429.0,America/Denver,1840021559
399,Gilroy,Gilroy,CA,California,37.0046,-121.5854,114461,1289.0,America/Los_Angeles,1840020327
400,Carlsbad,Carlsbad,CA,California,33.1246,-117.2834,114411,1169.0,America/Los_Angeles,1840019352
401,El Monte,El Monte,CA,California,34.0739,-118.0291,113917,4602.0,America/Los_Angeles,1840020480
402,North Charleston,North Charleston,SC,South Carolina,32.9067,-80.0722,113880,566.0,America/New_York,1840015164
403,Chico,Chico,CA,California,39.7578,-121.8161,113201,1116.0,America/Los_Angeles,1840018778
404,Temecula,Temecula,CA,California,33.4928,-117.1315,113117,1171.0,America/Los_Angeles,1840021937
405,Costa Mesa,Costa Mesa,CA,California,33.6667,-117.9135,112958,2759.0,America/Los_Angeles,1840019326
406,Utica,Utica,NY,New York,43.0962,-75.2261,112948,1384.0,America/New_York,1840002746
407,Clovis,Clovis,CA,California,36.8278,-119.683,112663,1711.0,America/Los_Angeles,1840018944
408,Norman,Norman,OK,Oklahoma,35.2335,-97.3471,112576,267.0,America/Chicago,1840020451
409,Elgin,Elgin,IL,Illinois,42.0383,-88.324,112062,1137.0,America/Chicago,1840008134
410,Centennial,Centennial,CO,Colorado,39.5926,-104.8673,111331,1446.0,America/Denver,1840018792
411,Lowell,Lowell,MA,Massachusetts,42.6389,-71.3217,111311,3157.0,America/New_York,1840000426
412,Downey,Downey,CA,California,33.9379,-118.1311,111263,3462.0,America/Los_Angeles,1840019245
413,Pompano Beach,Pompano Beach,FL,Florida,26.2428,-80.1312,111202,1787.0,America/New_York,1840015143
414,West Palm Beach,West Palm Beach,FL,Florida,26.7469,-80.132,111006,796.0,America/New_York,1840015993
415,Abilene,Abilene,TX,Texas,32.4543,-99.7384,110993,451.0,America/Chicago,1840019476
416,Everett,Everett,WA,Washington,47.9525,-122.1669,110840,1289.0,America/Los_Angeles,1840019785
417,Miami Gardens,Miami Gardens,FL,Florida,25.9433,-80.2426,110767,2346.0,America/New_York,1840015151
418,Gresham,Gresham,OR,Oregon,45.5021,-122.4413,110456,1817.0,America/Los_Angeles,1840019939
419,El Centro,El Centro,CA,California,32.7865,-115.5595,110434,1430.0,America/Los_Angeles,1840020630
420,Richmond,Richmond,CA,California,37.9477,-122.3389,110051,1413.0,America/Los_Angeles,1840020277
421,Inglewood,Inglewood,CA,California,33.9566,-118.3444,109309,4654.0,America/Los_Angeles,1840019237
422,Salisbury,Salisbury,MD,Maryland,38.3756,-75.5865,108982,920.0,America/New_York,1840006219
423,Broken Arrow,Broken Arrow,OK,Oklahoma,36.038,-95.7806,108875,667.0,America/Chicago,1840019059
424,San Buenaventura,San Buenaventura,CA,California,34.2741,-119.2314,108467,1913.0,America/Los_Angeles,1840037414
425,Sandy Springs,Sandy Springs,GA,Georgia,33.9366,-84.3703,108180,1109.0,America/New_York,1840015609
426,Hillsboro,Hillsboro,OR,Oregon,45.5273,-122.936,108026,1624.0,America/Los_Angeles,1840019932
427,Sioux City,Sioux City,IA,Iowa,42.4959,-96.3901,107932,545.0,America/Chicago,1840000447
428,Jacksonville,Jacksonville,NC,North Carolina,34.7289,-77.3941,107890,589.0,America/New_York,1840014653
429,Meridian,Meridian,ID,Idaho,43.6116,-116.3977,107787,1186.0,America/Boise,1840020046
430,Lewisville,Lewisville,TX,Texas,33.0454,-96.9815,107740,1124.0,America/Chicago,1840020639
431,Bend,Bend,OR,Oregon,44.0563,-121.3095,107460,1114.0,America/Los_Angeles,1840018618
432,Daly City,Daly City,CA,California,37.6862,-122.4685,107197,5418.0,America/Los_Angeles,1840018926
433,Highlands Ranch,Highlands Ranch,CO,Colorado,39.5419,-104.9708,107017,1702.0,America/Denver,1840028579
434,Jurupa Valley,Jurupa Valley,CA,California,34.001,-117.4706,106646,958.0,America/Los_Angeles,1840043419
435,Temple,Temple,TX,Texas,31.1068,-97.3891,106332,415.0,America/Chicago,1840022154
436,Logan,Logan,UT,Utah,41.7399,-111.8422,106319,1109.0,America/Denver,1840020108
437,Kailua,Kailua,HI,Hawaii,21.392,-157.7396,106260,1882.0,Pacific/Honolulu,1840023244
438,West Covina,West Covina,CA,California,34.0555,-117.9113,105808,2547.0,America/Los_Angeles,1840021876
439,Davie,Davie,FL,Florida,26.0789,-80.287,105594,1168.0,America/New_York,1840017272
440,Columbia,Columbia,MD,Maryland,39.2004,-76.859,105412,1274.0,America/New_York,1840005803
441,League City,League City,TX,Texas,29.4874,-95.1087,105410,793.0,America/Chicago,1840020973
442,Mandeville,Mandeville,LA,Louisiana,30.3751,-90.0904,105097,681.0,America/Chicago,1840015909
443,San Tan Valley,San Tan Valley,AZ,Arizona,33.1786,-111.5629,104936,534.0,America/Phoenix,1840027990
444,Turlock,Turlock,CA,California,37.5053,-120.8588,104719,1660.0,America/Los_Angeles,1840021533
445,Norwalk,Norwalk,CA,California,33.9069,-118.0829,104524,4157.0,America/Los_Angeles,1840020501
446,Allen,Allen,TX,Texas,33.1088,-96.6735,104040,1521.0,America/Chicago,1840019396
447,San Germán,San German,PR,Puerto Rico,18.0827,-67.046,103747,1270.0,America/Puerto_Rico,1630023526
448,San Mateo,San Mateo,CA,California,37.5522,-122.3121,103619,3297.0,America/Los_Angeles,1840021551
449,Rialto,Rialto,CA,California,34.1175,-117.3892,103549,1659.0,America/Los_Angeles,1840020407
450,Burbank,Burbank,CA,California,34.1879,-118.3235,103411,2305.0,America/Los_Angeles,1840019233
451,El Cajon,El Cajon,CA,California,32.8017,-116.9604,103249,2747.0,America/Los_Angeles,1840020618
452,Eau Claire,Eau Claire,WI,Wisconsin,44.8197,-91.4948,103197,807.0,America/Chicago,1840002296
453,Sparks,Sparks,NV,Nevada,39.5736,-119.7161,102895,1090.0,America/Los_Angeles,1840021337
454,Charlottesville,Charlottesville,VA,Virginia,38.0375,-78.4855,102164,1779.0,America/New_York,1840001678
455,Renton,Renton,WA,Washington,47.4784,-122.1918,101871,1675.0,America/Los_Angeles,1840019827
456,Idaho Falls,Idaho Falls,ID,Idaho,43.4871,-112.0362,101326,1004.0,America/Boise,1840018644
457,Vista,Vista,CA,California,33.1896,-117.2386,100659,2073.0,America/Los_Angeles,1840021994
458,Holland,Holland,MI,Michigan,42.7677,-86.0984,100202,771.0,America/Detroit,1840002996
459,Longmont,Longmont,CO,Colorado,40.1686,-105.1005,100146,1286.0,America/Denver,1840020178
460,Wichita Falls,Wichita Falls,TX,Texas,33.9072,-98.5291,100005,561.0,America/Chicago,1840021923
461,Lafayette,Lafayette,CO,Colorado,39.9946,-105.0998,99475,1170.0,America/Denver,1840020180
462,Vacaville,Vacaville,CA,California,38.3587,-121.9673,99397,1292.0,America/Los_Angeles,1840021498
463,Spokane Valley,Spokane Valley,WA,Washington,47.6626,-117.2346,99275,1016.0,America/Los_Angeles,1840021094
464,La Crosse,La Crosse,WI,Wisconsin,43.8241,-91.2268,99227,916.0,America/Chicago,1840002577
465,Carmel,Carmel,IN,Indiana,39.965,-86.146,99130,779.0,America/Indiana/Indianapolis,1840007260
466,Boca Raton,Boca Raton,FL,Florida,26.3752,-80.108,98776,1307.0,America/New_York,1840014207
467,Longview,Longview,TX,Texas,32.5193,-94.7622,98775,568.0,America/Chicago,1840020746
468,Kingsport,Kingsport,TN,Tennessee,36.5224,-82.5454,98767,394.0,America/New_York,1840014425
469,South Fulton,South Fulton,GA,Georgia,33.6273,-84.58,98586,446.0,America/New_York,1840029465
470,Beaverton,Beaverton,OR,Oregon,45.4779,-122.8168,98567,1941.0,America/Los_Angeles,1840018556
471,Rio Rancho,Rio Rancho,NM,New Mexico,35.2873,-106.6982,97976,365.0,America/Denver,1840020387
472,Prescott Valley,Prescott Valley,AZ,Arizona,34.598,-112.3185,97901,435.0,America/Phoenix,1840021772
473,Orem,Orem,UT,Utah,40.2981,-111.6994,97883,2030.0,America/Denver,1840020171
474,Edinburg,Edinburg,TX,Texas,26.3196,-98.1597,97734,843.0,America/Chicago,1840021020
475,San Angelo,San Angelo,TX,Texas,31.4424,-100.4504,97481,650.0,America/Chicago,1840022146
476,Portsmouth,Portsmouth,NH,New Hampshire,43.058,-70.7826,97455,528.0,America/New_York,1840002932
477,Tracy,Tracy,CA,California,37.7269,-121.4523,97372,1364.0,America/Los_Angeles,1840021518
478,Federal Way,Federal Way,WA,Washington,47.3091,-122.3358,96812,1676.0,America/Los_Angeles,1840019826
479,Lawrence,Lawrence,KS,Kansas,38.9597,-95.2642,96694,1100.0,America/Chicago,1840001632
480,Manteca,Manteca,CA,California,37.7927,-121.2264,96553,1463.0,America/Los_Angeles,1840020265
481,San Marcos,San Marcos,CA,California,33.135,-117.1743,96219,1525.0,America/Los_Angeles,1840021991
482,Sandy,Sandy,UT,Utah,40.5709,-111.8506,96137,1536.0,America/Denver,1840037422
483,Riverview,Riverview,FL,Florida,27.8227,-82.3023,95849,801.0,America/New_York,1840014158
484,Compton,Compton,CA,California,33.893,-118.2274,95804,3688.0,America/Los_Angeles,1840019240
485,Brockton,Brockton,MA,Massachusetts,42.0821,-71.0242,95740,1732.0,America/New_York,1840000467
486,Santa Fe,Santa Fe,NM,New Mexico,35.6619,-105.9819,95498,624.0,America/Denver,1840021707
487,Hanford,Hanford,CA,California,36.3274,-119.6549,95459,1272.0,America/Los_Angeles,1840020382
488,Middletown,Middletown,OH,Ohio,39.5033,-84.3659,95296,720.0,America/New_York,1840003804
489,Hesperia,Hesperia,CA,California,34.3975,-117.3147,95163,505.0,America/Los_Angeles,1840020404
490,Portsmouth,Portsmouth,VA,Virginia,36.8468,-76.354,94961,1101.0,America/New_York,1840003872
491,South Gate,South Gate,CA,California,33.9447,-118.1926,94905,5063.0,America/Los_Angeles,1840021870
492,Roswell,Roswell,GA,Georgia,34.0391,-84.3513,94884,899.0,America/New_York,1840014741
493,Sunrise,Sunrise,FL,Florida,26.1547,-80.2997,94657,2256.0,America/New_York,1840016000
494,Bowling Green,Bowling Green,KY,Kentucky,36.9716,-86.4378,94555,684.0,America/Chicago,1840013265
495,Lee's Summit,Lee's Summit,MO,Missouri,38.9171,-94.3816,94520,598.0,America/Chicago,1840032155
496,Slidell,Slidell,LA,Louisiana,30.2887,-89.7828,94498,713.0,America/Chicago,1840015911
497,Blacksburg,Blacksburg,VA,Virginia,37.23,-80.4279,94398,868.0,America/New_York,1840006446
498,Quincy,Quincy,MA,Massachusetts,42.2506,-71.0187,94389,2199.0,America/New_York,1840000461
499,Plantation,Plantation,FL,Florida,26.1259,-80.2617,94366,1675.0,America/New_York,1840015142
500,Dearborn,Dearborn,MI,Michigan,42.3127,-83.213,94328,1502.0,America/Detroit,1840003969
501,Lynn,Lynn,MA,Massachusetts,42.4781,-70.9664,94201,3386.0,America/New_York,1840000409
502,Livonia,Livonia,MI,Michigan,42.3972,-83.3733,93970,1016.0,America/Detroit,1840003985
503,Missoula,Missoula,MT,Montana,46.8751,-114.0214,93723,839.0,America/Denver,1840019840
504,Arden-Arcade,Arden-Arcade,CA,California,38.6017,-121.3845,93719,2275.0,America/Los_Angeles,1840036690
505,Fishers,Fishers,IN,Indiana,39.9588,-85.9659,93488,1013.0,America/Indiana/Indianapolis,1840010496
506,Mayagüez,Mayaguez,PR,Puerto Rico,18.2003,-67.1397,93426,1101.0,America/Puerto_Rico,1630035520
507,Terre Haute,Terre Haute,IN,Indiana,39.466,-87.3751,93247,684.0,America/Indiana/Indianapolis,1840009671
508,Edmond,Edmond,OK,Oklahoma,35.6689,-97.416,93101,424.0,America/Chicago,1840020423
509,Menifee,Menifee,CA,California,33.6909,-117.1849,92968,772.0,America/Los_Angeles,1840022903
510,Vineland,Vineland,NJ,New Jersey,39.4653,-74.9981,92364,335.0,America/New_York,1840001551
511,Santa Monica,Santa Monica,CA,California,34.0235,-118.481,91600,4205.0,America/Los_Angeles,1840021866
512,Alafaya,Alafaya,FL,Florida,28.528,-81.1868,91468,1152.0,America/New_York,1840029102
513,Suffolk,Suffolk,VA,Virginia,36.6953,-76.6398,91383,88.0,America/New_York,1840003873
514,Carson,Carson,CA,California,33.8374,-118.2559,91354,1883.0,America/Los_Angeles,1840019214
515,Kirkland,Kirkland,WA,Washington,47.697,-122.2057,91146,1976.0,America/Los_Angeles,1840019836
516,Westminster,Westminster,CA,California,33.7523,-117.9938,90857,3494.0,America/Los_Angeles,1840021969
517,San Leandro,San Leandro,CA,California,37.7074,-122.1599,90489,2622.0,America/Los_Angeles,1840021538
518,Lawton,Lawton,OK,Oklahoma,34.6175,-98.4202,90487,443.0,America/Chicago,1840020477
519,Bismarck,Bismarck,ND,North Dakota,46.8143,-100.7694,90420,817.0,America/Chicago,1840001926
520,Dover,Dover,NH,New Hampshire,43.1887,-70.8845,89874,461.0,America/New_York,1840002808
521,Town 'n' Country,Town 'n' Country,FL,Florida,28.0106,-82.5763,89791,1569.0,America/New_York,1840029089
522,Fall River,Fall River,MA,Massachusetts,41.7136,-71.1015,89618,1044.0,America/New_York,1840000497
523,Rapid City,Rapid City,SD,South Dakota,44.0716,-103.2204,89606,540.0,America/Denver,1840002180
524,Germantown,Germantown,MD,Maryland,39.1755,-77.2643,89529,2029.0,America/New_York,1840005840
525,Miami Beach,Miami Beach,FL,Florida,25.8171,-80.1396,89439,4489.0,America/New_York,1840015150
526,Mount Pleasant,Mount Pleasant,SC,South Carolina,32.8537,-79.8203,89410,697.0,America/New_York,1840017286
527,Albany,Albany,GA,Georgia,31.5776,-84.1762,89323,509.0,America/New_York,1840013864
528,Chino,Chino,CA,California,33.9836,-117.6654,89170,1162.0,America/Los_Angeles,1840019114
529,Norwalk,Norwalk,CT,Connecticut,41.1144,-73.4215,88755,1497.0,America/New_York,1840004839
530,Florence,Florence,SC,South Carolina,34.178,-79.7898,88709,643.0,America/New_York,1840013643
531,State College,State College,PA,Pennsylvania,40.7909,-77.8567,88526,3567.0,America/New_York,1840000830
532,Livermore,Livermore,CA,California,37.6868,-121.7607,88412,1339.0,America/Los_Angeles,1840020294
533,Conroe,Conroe,TX,Texas,30.3238,-95.4824,88369,473.0,America/Chicago,1840019586
534,Newton,Newton,MA,Massachusetts,42.3316,-71.2085,88322,1912.0,America/New_York,1840000433
535,O'Fallon,O'Fallon,MO,Missouri,38.785,-90.7175,88132,1142.0,America/Chicago,1840008571
536,Dalton,Dalton,GA,Georgia,34.769,-84.972,87944,612.0,America/New_York,1840014651
537,Citrus Heights,Citrus Heights,CA,California,38.6948,-121.288,87665,2380.0,America/Los_Angeles,1840018845
538,Jackson,Jackson,MI,Michigan,42.2431,-84.4038,87230,1148.0,America/Detroit,1840003173
539,Waukegan,Waukegan,IL,Illinois,42.3698,-87.8716,87157,1389.0,America/Chicago,1840010113
540,Muncie,Muncie,IN,Indiana,40.1989,-85.395,87037,954.0,America/Indiana/Indianapolis,1840008365
541,Newport Beach,Newport Beach,CA,California,33.6151,-117.8668,86694,1406.0,America/Los_Angeles,1840020581
542,Decatur,Decatur,IL,Illinois,39.8557,-88.9342,86604,646.0,America/Chicago,1840007269
543,Homosassa Springs,Homosassa Springs,FL,Florida,28.8119,-82.5392,86578,223.0,America/New_York,1840014060
544,Port Huron,Port Huron,MI,Michigan,42.9821,-82.4388,86440,1378.0,America/Detroit,1840003953
545,Anderson,Anderson,IN,Indiana,40.0891,-85.6892,85700,505.0,America/Indiana/Indianapolis,1840007242
546,Bryan,Bryan,TX,Texas,30.665,-96.3807,85645,610.0,America/Chicago,1840019569
547,Hawthorne,Hawthorne,CA,California,33.9147,-118.3476,85410,5417.0,America/Los_Angeles,1840020486
548,Hoover,Hoover,AL,Alabama,33.3763,-86.8068,85386,685.0,America/Chicago,1840014795
549,Napa,Napa,CA,California,38.2975,-122.301,85372,1675.0,America/Los_Angeles,1840020241
550,Bloomington,Bloomington,MN,Minnesota,44.8306,-93.3151,85226,948.0,America/Chicago,1840006747
551,Clifton,Clifton,NJ,New Jersey,40.863,-74.1575,85201,2917.0,America/New_York,1840003511
552,Springfield,Springfield,OH,Ohio,39.93,-83.7959,85121,876.0,America/New_York,1840003765
553,Hattiesburg,Hattiesburg,MS,Mississippi,31.3074,-89.317,85086,332.0,America/Chicago,1840013878
554,Whittier,Whittier,CA,California,33.9678,-118.0188,84821,2235.0,America/Los_Angeles,1840021878
555,Largo,Largo,FL,Florida,27.9088,-82.7712,84666,1763.0,America/New_York,1840015114
556,Lake Forest,Lake Forest,CA,California,33.6605,-117.6714,84666,1955.0,America/Los_Angeles,1840020591
557,New Braunfels,New Braunfels,TX,Texas,29.6994,-98.1148,84622,723.0,America/Chicago,1840021341
558,Johns Creek,Johns Creek,GA,Georgia,34.0333,-84.2027,84551,1059.0,America/New_York,1840014742
559,Redwood City,Redwood City,CA,California,37.5025,-122.2253,84518,1687.0,America/Los_Angeles,1840020304
560,Alhambra,Alhambra,CA,California,34.084,-118.1355,84509,4275.0,America/Los_Angeles,1840019222
561,Troy,Troy,MI,Michigan,42.5817,-83.1457,84051,970.0,America/Detroit,1840002434
562,Mission,Mission,TX,Texas,26.2039,-98.3256,83796,890.0,America/Chicago,1840021026
563,Alton,Alton,IL,Illinois,38.9037,-90.152,83705,652.0,America/Chicago,1840007424
564,Goodyear,Goodyear,AZ,Arizona,33.2614,-112.3622,83519,168.0,America/Phoenix,1840020564
565,Fort Myers,Fort Myers,FL,Florida,26.6194,-81.8302,83505,809.0,America/New_York,1840014226
566,Williamsburg,Williamsburg,VA,Virginia,37.2693,-76.7076,83021,649.0,America/New_York,1840001720
567,Chino Hills,Chino Hills,CA,California,33.9508,-117.7254,82800,716.0,America/Los_Angeles,1840019115
568,Melbourne,Melbourne,FL,Florida,28.1086,-80.6627,82281,719.0,America/New_York,1840015960
569,Buena Park,Buena Park,CA,California,33.8572,-118.0046,82228,3015.0,America/Los_Angeles,1840019324
570,Kankakee,Kankakee,IL,Illinois,41.102,-87.8643,82095,662.0,America/Chicago,1840008260
571,Atascocita,Atascocita,TX,Texas,29.9777,-95.1953,81860,1323.0,America/Chicago,1840018251
572,Loveland,Loveland,CO,Colorado,40.4166,-105.0623,81774,917.0,America/Denver,1840020152
573,Westland,Westland,MI,Michigan,42.3192,-83.3805,81713,1544.0,America/Detroit,1840001847
574,Cicero,Cicero,IL,Illinois,41.8445,-87.7593,81471,5363.0,America/Chicago,1840009186
575,Pine Hills,Pine Hills,FL,Florida,28.5818,-81.4692,81415,2577.0,America/New_York,1840014098
576,San Ramon,San Ramon,CA,California,37.7624,-121.9365,81344,1680.0,America/Los_Angeles,1840021530
577,Cranston,Cranston,RI,Rhode Island,41.7658,-71.4858,81252,1106.0,America/New_York,1840003287
578,Somerville,Somerville,MA,Massachusetts,42.3908,-71.1014,81175,7602.0,America/New_York,1840003123
579,Silver Spring,Silver Spring,MD,Maryland,39.0028,-77.0207,81069,3970.0,America/New_York,1840005845
580,Warwick,Warwick,RI,Rhode Island,41.7062,-71.4334,81043,894.0,America/New_York,1840003344
581,Joplin,Joplin,MO,Missouri,37.0757,-94.5018,81025,512.0,America/Chicago,1840008771
582,Farmington Hills,Farmington Hills,MI,Michigan,42.486,-83.3771,80937,939.0,America/Detroit,1840002442
583,Auburn,Auburn,WA,Washington,47.3039,-122.2108,80914,1056.0,America/Los_Angeles,1840018416
584,Deerfield Beach,Deerfield Beach,FL,Florida,26.305,-80.1277,80822,2087.0,America/New_York,1840015136
585,Tustin,Tustin,CA,California,33.7311,-117.8107,80815,2795.0,America/Los_Angeles,1840021967
586,Franklin,Franklin,TN,Tennessee,35.92,-86.8516,80675,728.0,America/Chicago,1840013380
587,Anderson,Anderson,SC,South Carolina,34.5211,-82.6478,80657,730.0,America/New_York,1840013579
588,Lebanon,Lebanon,PA,Pennsylvania,40.3412,-76.4228,80620,2388.0,America/New_York,1840001347
589,Springdale,Springdale,AR,Arkansas,36.1901,-94.1574,80433,660.0,America/Chicago,1840015336
590,Yauco,Yauco,PR,Puerto Rico,18.0344,-66.8615,80307,2064.0,America/Puerto_Rico,1630035600
591,Madera,Madera,CA,California,36.963,-120.0778,80218,1536.0,America/Los_Angeles,1840020300
592,Brooklyn Park,Brooklyn Park,MN,Minnesota,45.1112,-93.3505,80173,1187.0,America/Chicago,1840004023
593,Mountain View,Mountain View,CA,California,37.4001,-122.0796,80104,2586.0,America/Los_Angeles,1840020332
594,Lawrence,Lawrence,MA,Massachusetts,42.7002,-71.1626,80022,4458.0,America/New_York,1840000408
595,Pleasanton,Pleasanton,CA,California,37.6663,-121.8805,79975,1279.0,America/Los_Angeles,1840020298
596,Alameda,Alameda,CA,California,37.7668,-122.267,79827,2949.0,America/Los_Angeles,1840018913
597,Zephyrhills,Zephyrhills,FL,Florida,28.2409,-82.1797,79795,652.0,America/New_York,1840015968
598,Lakewood,Lakewood,CA,California,33.8471,-118.1222,79676,3272.0,America/Los_Angeles,1840020515
599,Flagstaff,Flagstaff,AZ,Arizona,35.1872,-111.6194,79624,428.0,America/Phoenix,1840020335
600,Florence,Florence,AL,Alabama,34.8303,-87.6655,79590,591.0,America/Chicago,1840002083
601,Folsom,Folsom,CA,California,38.6668,-121.1422,79584,1102.0,America/Los_Angeles,1840020246
602,New Rochelle,New Rochelle,NY,New York,40.9304,-73.7836,79367,2979.0,America/New_York,1840000782
603,St. Joseph,St. Joseph,MO,Missouri,39.7598,-94.821,79349,660.0,America/Chicago,1840009549
604,Texarkana,Texarkana,TX,Texas,33.45,-94.0847,79304,452.0,America/Chicago,1840021987
605,Plymouth,Plymouth,MN,Minnesota,45.0225,-93.4617,78879,931.0,America/Chicago,1840008929
606,Flower Mound,Flower Mound,TX,Texas,33.0343,-97.1146,78854,725.0,America/Chicago,1840022010
607,Valdosta,Valdosta,GA,Georgia,30.8502,-83.2788,78786,604.0,America/New_York,1840015894
608,Pharr,Pharr,TX,Texas,26.1685,-98.1904,78689,1285.0,America/Chicago,1840021030
609,Parma,Parma,OH,Ohio,41.3843,-81.7286,78623,1516.0,America/New_York,1840003406
610,Newark,Newark,OH,Ohio,40.0706,-82.425,78447,923.0,America/New_York,1840001419
611,Elizabethtown,Elizabethtown,KY,Kentucky,37.7031,-85.8773,78446,428.0,America/New_York,1840013218
612,Davis,Davis,CA,California,38.5553,-121.737,78431,2657.0,America/Los_Angeles,1840018833
613,St. Augustine,St. Augustine,FL,Florida,29.8976,-81.31,78386,610.0,America/New_York,1840015935
614,Boynton Beach,Boynton Beach,FL,Florida,26.5281,-80.0811,78060,1865.0,America/New_York,1840014208
615,Perris,Perris,CA,California,33.7898,-117.2233,77708,951.0,America/Los_Angeles,1840020557
616,Anniston,Anniston,AL,Alabama,33.6712,-85.8135,77690,181.0,America/Chicago,1840006563
617,Sumter,Sumter,SC,South Carolina,33.9392,-80.393,77626,470.0,America/New_York,1840015612
618,Upland,Upland,CA,California,34.1178,-117.6604,77348,1916.0,America/Los_Angeles,1840021730
619,Layton,Layton,UT,Utah,41.077,-111.962,77268,1326.0,America/Denver,1840020145
620,Kendall,Kendall,FL,Florida,25.6697,-80.3556,77228,1852.0,America/New_York,1840014244
621,Morgantown,Morgantown,WV,West Virginia,39.6383,-79.9464,77193,1172.0,America/New_York,1840005647
622,Cedar Park,Cedar Park,TX,Texas,30.5105,-97.8197,77181,1168.0,America/Chicago,1840019572
623,Auburn,Auburn,AL,Alabama,32.6087,-85.4903,76793,417.0,America/Chicago,1840013810
624,Camarillo,Camarillo,CA,California,34.223,-119.0321,76751,1345.0,America/Los_Angeles,1840019201
625,Cheyenne,Cheyenne,WY,Wyoming,41.135,-104.7902,76456,767.0,America/Denver,1840018713
626,Bellflower,Bellflower,CA,California,33.888,-118.1271,76339,4818.0,America/Los_Angeles,1840019230
627,Watsonville,Watsonville,CA,California,36.9206,-121.7708,76285,3016.0,America/Los_Angeles,1840021581
628,Hammond,Hammond,IN,Indiana,41.6168,-87.4909,76141,1293.0,America/Chicago,1840007092
629,Baytown,Baytown,TX,Texas,29.7587,-94.9671,76089,793.0,America/Chicago,1840019616
630,Wausau,Wausau,WI,Wisconsin,44.962,-89.6459,76016,777.0,America/Chicago,1840002163
631,Wyoming,Wyoming,MI,Michigan,42.8908,-85.7066,75999,1186.0,America/Detroit,1840000374
632,Alexandria,Alexandria,LA,Louisiana,31.2923,-92.4702,75835,630.0,America/Chicago,1840013873
633,Hammond,Hammond,LA,Louisiana,30.5061,-90.4563,75688,565.0,America/Chicago,1840013908
634,Baldwin Park,Baldwin Park,CA,California,34.0829,-117.9722,75659,4404.0,America/Los_Angeles,1840019227
635,Carmichael,Carmichael,CA,California,38.6318,-121.3263,75642,1904.0,America/Los_Angeles,1840017579
636,Battle Creek,Battle Creek,MI,Michigan,42.2985,-85.2296,75608,463.0,America/Detroit,1840003176
637,Bethlehem,Bethlehem,PA,Pennsylvania,40.6266,-75.3679,75571,1526.0,America/New_York,1840000986
638,Fajardo,Fajardo,PR,Puerto Rico,18.3331,-65.6589,75549,1156.0,America/Puerto_Rico,1630035668
639,Gary,Gary,IN,Indiana,41.5905,-87.3473,75486,585.0,America/Chicago,1840008194
640,Georgetown,Georgetown,TX,Texas,30.666,-97.6966,75470,508.0,America/Chicago,1840020875
641,Missouri City,Missouri City,TX,Texas,29.563,-95.5365,75348,1002.0,America/Chicago,1840020950
642,Oshkosh,Oshkosh,WI,Wisconsin,44.0227,-88.5619,75204,953.0,America/Chicago,1840002246
643,Milpitas,Milpitas,CA,California,37.4336,-121.8921,75182,2153.0,America/Los_Angeles,1840020329
644,Arlington Heights,Arlington Heights,IL,Illinois,42.0955,-87.9826,75071,1745.0,America/Chicago,1840011243
645,Union City,Union City,CA,California,37.6032,-122.0181,75067,1510.0,America/Los_Angeles,1840021539
646,Wheeling,Wheeling,WV,West Virginia,40.0752,-80.6951,75065,758.0,America/New_York,1840005510
647,Harrisonburg,Harrisonburg,VA,Virginia,38.4362,-78.8735,74901,1192.0,America/New_York,1840003844
648,Winchester,Winchester,VA,Virginia,39.1735,-78.1746,74593,1172.0,America/New_York,1840001623
649,Buckeye,Buckeye,AZ,Arizona,33.4314,-112.6429,74467,73.0,America/Phoenix,1840021939
650,Rancho Cordova,Rancho Cordova,CA,California,38.5737,-121.2527,74394,830.0,America/Los_Angeles,1840020248
651,Pocatello,Pocatello,ID,Idaho,42.8724,-112.4647,74359,648.0,America/Boise,1840013376
652,Rochester Hills,Rochester Hills,MI,Michigan,42.6645,-83.1563,74340,874.0,America/Detroit,1840002429
653,Bolingbrook,Bolingbrook,IL,Illinois,41.6901,-88.1021,74319,1154.0,America/Chicago,1840011482
654,Pasco,Pasco,WA,Washington,46.2506,-119.1305,74266,844.0,America/Los_Angeles,1840019888
655,Hilton Head Island,Hilton Head Island,SC,South Carolina,32.1896,-80.7499,74248,373.0,America/New_York,1840016974
656,Centreville,Centreville,VA,Virginia,38.839,-77.4389,74230,2401.0,America/New_York,1840006015
657,Mansfield,Mansfield,OH,Ohio,40.7656,-82.5275,74021,581.0,America/New_York,1840000960
658,Evanston,Evanston,IL,Illinois,42.0464,-87.6943,73979,3671.0,America/Chicago,1840008129
659,Camden,Camden,NJ,New Jersey,39.9361,-75.1073,73742,3191.0,America/New_York,1840001507
660,South Jordan,South Jordan,UT,Utah,40.557,-111.9784,73695,1282.0,America/Denver,1840021385
661,Jonesboro,Jonesboro,AR,Arkansas,35.8212,-90.6791,73631,372.0,America/Chicago,1840014507
662,Lake Jackson,Lake Jackson,TX,Texas,29.0516,-95.4521,73478,533.0,America/Chicago,1840020980
663,Schaumburg,Schaumburg,IL,Illinois,42.0308,-88.0838,73392,1468.0,America/Chicago,1840011319
664,Altoona,Altoona,PA,Pennsylvania,40.5082,-78.4007,73374,1722.0,America/New_York,1840001080
665,Apple Valley,Apple Valley,CA,California,34.5352,-117.2109,73339,367.0,America/Los_Angeles,1840021733
666,Conway,Conway,AR,Arkansas,35.0753,-92.4692,73279,559.0,America/Chicago,1840014598
667,Ellicott City,Ellicott City,MD,Maryland,39.2774,-76.8345,73272,942.0,America/New_York,1840005802
668,Owensboro,Owensboro,KY,Kentucky,37.7575,-87.1172,73115,1124.0,America/Chicago,1840014340
669,Caguas,Caguas,PR,Puerto Rico,18.2319,-66.0388,73040,2587.0,America/Puerto_Rico,1630023540
670,Southfield,Southfield,MI,Michigan,42.4765,-83.2605,72966,1073.0,America/Detroit,1840002431
671,Framingham,Framingham,MA,Massachusetts,42.3085,-71.4368,72846,1123.0,America/New_York,1840003131
672,Cleveland,Cleveland,TN,Tennessee,35.1817,-84.8707,72589,642.0,America/New_York,1840014603
673,New Britain,New Britain,CT,Connecticut,41.6759,-72.7862,72543,2090.0,America/New_York,1840004774
674,Waukesha,Waukesha,WI,Wisconsin,43.0087,-88.2464,72419,1095.0,America/Chicago,1840003008
675,Dale City,Dale City,VA,Virginia,38.6473,-77.3459,72062,1953.0,America/New_York,1840006094
676,Janesville,Janesville,WI,Wisconsin,42.6854,-89.0135,71907,728.0,America/Chicago,1840002467
677,Lauderhill,Lauderhill,FL,Florida,26.1605,-80.2241,71827,3255.0,America/New_York,1840015146
678,Pawtucket,Pawtucket,RI,Rhode Island,41.8744,-71.3743,71821,3199.0,America/New_York,1840003285
679,Juana Díaz,Juana Diaz,PR,Puerto Rico,18.0532,-66.5044,71759,1913.0,America/Puerto_Rico,1630023583
680,Pittsburg,Pittsburg,CA,California,38.0182,-121.8965,71723,1566.0,America/Los_Angeles,1840020282
681,Redlands,Redlands,CA,California,34.0512,-117.1712,71680,768.0,America/Los_Angeles,1840020412
682,Maple Grove,Maple Grove,MN,Minnesota,45.1089,-93.4626,71569,848.0,America/Chicago,1840008923
683,Mansfield,Mansfield,TX,Texas,32.569,-97.1213,71419,752.0,America/Chicago,1840020702
684,Woodbury,Woodbury,MN,Minnesota,44.9057,-92.923,71298,788.0,America/Chicago,1840009998
685,Wenatchee,Wenatchee,WA,Washington,47.436,-120.3295,71119,1250.0,America/Los_Angeles,1840021074
686,Jackson,Jackson,TN,Tennessee,35.6538,-88.8354,71004,442.0,America/Chicago,1840014528
687,Weston,Weston,FL,Florida,26.1006,-80.4054,70965,1114.0,America/New_York,1840016003
688,San Marcos,San Marcos,TX,Texas,29.8734,-97.9356,70864,694.0,America/Chicago,1840022188
689,Wilmington,Wilmington,DE,Delaware,39.7415,-75.5416,70655,2503.0,America/New_York,1840005579
690,St. Charles,St. Charles,MO,Missouri,38.7954,-90.5157,70650,1099.0,America/Chicago,1840009719
691,Eldersburg,Eldersburg,MD,Maryland,39.4041,-76.9528,70639,296.0,America/New_York,1840005698
692,North Richland Hills,North Richland Hills,TX,Texas,32.8604,-97.218,70585,1500.0,America/Chicago,1840020703
693,Casas Adobes,Casas Adobes,AZ,Arizona,32.3423,-111.0113,70516,1021.0,America/Phoenix,1840018108
694,Sheboygan,Sheboygan,WI,Wisconsin,43.7403,-87.7316,70234,1188.0,America/Chicago,1840002628
695,Lodi,Lodi,CA,California,38.1218,-121.2932,70049,1884.0,America/Los_Angeles,1840020263
696,Walnut Creek,Walnut Creek,CA,California,37.9024,-122.0399,69836,1364.0,America/Los_Angeles,1840021531
697,Passaic,Passaic,NJ,New Jersey,40.8574,-74.1282,69789,8600.0,America/New_York,1840000837
698,Bristol,Bristol,TN,Tennessee,36.5572,-82.2154,69734,318.0,America/New_York,1840013301
699,Decatur,Decatur,AL,Alabama,34.5731,-86.9905,69710,386.0,America/Chicago,1840001403
700,West Bend,West Bend,WI,Wisconsin,43.4173,-88.1818,69672,785.0,America/Chicago,1840002829
701,Glen Burnie,Glen Burnie,MD,Maryland,39.156,-76.6071,69649,1553.0,America/New_York,1840005917
702,Lynwood,Lynwood,CA,California,33.924,-118.2016,69625,5553.0,America/Los_Angeles,1840020492
703,Dothan,Dothan,AL,Alabama,31.2336,-85.407,69586,294.0,America/Chicago,1840001518
704,Broomfield,Broomfield,CO,Colorado,39.9542,-105.0526,69444,813.0,America/Denver,1840018781
705,Lima,Lima,OH,Ohio,40.741,-84.112,69440,1046.0,America/New_York,1840002785
706,Florida,Florida,PR,Puerto Rico,18.3643,-66.5611,69427,1170.0,America/Puerto_Rico,1630023648
707,Homestead,Homestead,FL,Florida,25.4665,-80.4472,68937,1764.0,America/New_York,1840015159
708,Delray Beach,Delray Beach,FL,Florida,26.455,-80.0905,68916,1672.0,America/New_York,1840015123
709,Daytona Beach,Daytona Beach,FL,Florida,29.1995,-81.0982,68711,404.0,America/New_York,1840015068
710,Bossier City,Bossier City,LA,Louisiana,32.5224,-93.6668,68286,601.0,America/Chicago,1840013790
711,Poinciana,Poinciana,FL,Florida,28.1217,-81.4821,68280,366.0,America/New_York,1840014132
712,Parkersburg,Parkersburg,WV,West Virginia,39.2623,-81.542,68217,974.0,America/New_York,1840005786
713,Rockville,Rockville,MD,Maryland,39.0834,-77.1553,68155,1934.0,America/New_York,1840005849
714,Yorba Linda,Yorba Linda,CA,California,33.889,-117.7714,68103,1317.0,America/Los_Angeles,1840021970
715,Union City,Union City,NJ,New Jersey,40.7675,-74.0323,68073,20421.0,America/New_York,1840001034
716,Palo Alto,Palo Alto,CA,California,37.3905,-122.1468,67973,1089.0,America/Los_Angeles,1840020333
717,Redmond,Redmond,WA,Washington,47.6763,-122.1169,67959,1583.0,America/Los_Angeles,1840019835
718,Longview,Longview,WA,Washington,46.1461,-122.963,67958,989.0,America/Los_Angeles,1840019904
719,Bay City,Bay City,MI,Michigan,43.5902,-83.8887,67917,1249.0,America/Detroit,1840002583
720,Dubuque,Dubuque,IA,Iowa,42.5002,-90.707,67916,725.0,America/Chicago,1840000438
721,Porterville,Porterville,CA,California,36.0643,-119.0338,67887,1222.0,America/Los_Angeles,1840020368
722,Gaithersburg,Gaithersburg,MD,Maryland,39.1346,-77.2131,67878,2539.0,America/New_York,1840005848
723,Palatine,Palatine,IL,Illinois,42.118,-88.043,67875,1927.0,America/Chicago,1840011311
724,Rogers,Rogers,AR,Arkansas,36.317,-94.1531,67787,672.0,America/Chicago,1840014444
725,Mount Vernon,Mount Vernon,WA,Washington,48.4203,-122.3115,67767,1114.0,America/Los_Angeles,1840019774
726,El Paso de Robles,El Paso de Robles,CA,California,35.6394,-120.656,67696,618.0,America/Los_Angeles,1840074847
727,Mount Vernon,Mount Vernon,NY,New York,40.9136,-73.8291,67623,5943.0,America/New_York,1840000781
728,Sherman,Sherman,TX,Texas,33.6273,-96.6221,67210,361.0,America/Chicago,1840021953
729,Rocklin,Rocklin,CA,California,38.8075,-121.2489,67070,1307.0,America/Los_Angeles,1840020232
730,Hanover,Hanover,PA,Pennsylvania,39.8118,-76.9836,67037,1637.0,America/New_York,1840001450
731,Rome,Rome,GA,Georgia,34.2662,-85.1863,66998,445.0,America/New_York,1840014681
732,Lehi,Lehi,UT,Utah,40.4136,-111.8725,66980,920.0,America/Denver,1840020168
733,South San Francisco,South San Francisco,CA,California,37.6538,-122.4196,66878,2805.0,America/Los_Angeles,1840021552
734,Kenner,Kenner,LA,Louisiana,30.0109,-90.2549,66759,1732.0,America/Chicago,1840015047
735,Guaynabo,Guaynabo,PR,Puerto Rico,18.3832,-66.1134,66751,2139.0,America/Puerto_Rico,1630023575
736,West Des Moines,West Des Moines,IA,Iowa,41.5521,-93.7806,66724,545.0,America/Chicago,1840010185
737,Redondo Beach,Redondo Beach,CA,California,33.8577,-118.3765,66663,4148.0,America/Los_Angeles,1840020509
738,DeKalb,DeKalb,IL,Illinois,41.9314,-88.7481,66624,1027.0,America/Chicago,1840007033
739,Petaluma,Petaluma,CA,California,38.2423,-122.6266,66609,1630.0,America/Los_Angeles,1840020244
740,Alpharetta,Alpharetta,GA,Georgia,34.0704,-84.2738,66566,955.0,America/New_York,1840013659
741,Carbondale,Carbondale,IL,Illinois,37.7221,-89.2237,66482,563.0,America/Chicago,1840007560
742,Tamarac,Tamarac,FL,Florida,26.2056,-80.2539,66432,2213.0,America/New_York,1840016001
743,Victoria,Victoria,TX,Texas,28.8287,-96.9849,66427,692.0,America/Chicago,1840023044
744,Albany,Albany,OR,Oregon,44.6272,-123.0965,66405,1190.0,America/Los_Angeles,1840018605
745,Eagan,Eagan,MN,Minnesota,44.817,-93.1638,66377,821.0,America/Chicago,1840007852
746,Saratoga Springs,Saratoga Springs,NY,New York,43.0674,-73.7775,66290,385.0,America/New_York,1840000369
747,Corvallis,Corvallis,OR,Oregon,44.5698,-123.2779,66090,1586.0,America/Los_Angeles,1840018611
748,North Little Rock,North Little Rock,AR,Arkansas,34.7807,-92.2371,66079,487.0,America/Chicago,1840014632
749,Glens Falls,Glens Falls,NY,New York,43.3109,-73.6458,66024,1436.0,America/New_York,1840000345
750,Michigan City,Michigan City,IN,Indiana,41.7092,-86.869,65946,590.0,America/Chicago,1840013869
751,Ames,Ames,IA,Iowa,42.0256,-93.6217,65864,928.0,America/Chicago,1840007019
752,Shawnee,Shawnee,KS,Kansas,39.0158,-94.8076,65844,605.0,America/Chicago,1840001641
753,Eastvale,Eastvale,CA,California,33.9617,-117.5803,65766,2003.0,America/Los_Angeles,1840028421
754,Lakeville,Lakeville,MN,Minnesota,44.6774,-93.252,65710,698.0,America/Chicago,1840007859
755,Weirton,Weirton,WV,West Virginia,40.406,-80.5671,65447,394.0,America/New_York,1840005405
756,Rowlett,Rowlett,TX,Texas,32.9155,-96.5489,65426,1217.0,America/Chicago,1840020711
757,Guayama,Guayama,PR,Puerto Rico,17.9743,-66.1104,65343,2100.0,America/Puerto_Rico,1630035675
758,Schenectady,Schenectady,NY,New York,42.8025,-73.9275,65336,2337.0,America/New_York,1840000395
759,Sammamish,Sammamish,WA,Washington,47.6017,-122.0416,65265,1233.0,America/Los_Angeles,1840021115
760,Castle Rock,Castle Rock,CO,Colorado,39.3763,-104.8535,65176,733.0,America/Denver,1840022455
761,Jupiter,Jupiter,FL,Florida,26.92,-80.1128,65139,1162.0,America/New_York,1840017255
762,Bayonne,Bayonne,NJ,New Jersey,40.6668,-74.1158,65112,4318.0,America/New_York,1840003595
763,Bethesda,Bethesda,MD,Maryland,38.9866,-77.1188,65092,1895.0,America/New_York,1840005826
764,Blaine,Blaine,MN,Minnesota,45.1696,-93.2077,65048,763.0,America/Chicago,1840006719
765,Laguna Niguel,Laguna Niguel,CA,California,33.5275,-117.705,65048,1704.0,America/Los_Angeles,1840020589
766,Wellington,Wellington,FL,Florida,26.6461,-80.2699,64990,558.0,America/New_York,1840018311
767,San Clemente,San Clemente,CA,California,33.4499,-117.6102,64929,1365.0,America/Los_Angeles,1840021962
768,Florence-Graham,Florence-Graham,CA,California,33.9682,-118.2447,64787,7127.0,America/Los_Angeles,1840037057
769,Ankeny,Ankeny,IA,Iowa,41.7288,-93.6031,64744,826.0,America/Chicago,1840007066
770,East Orange,East Orange,NJ,New Jersey,40.7651,-74.2117,64650,6355.0,America/New_York,1840002792
771,Tulare,Tulare,CA,California,36.1995,-119.34,64546,1222.0,America/Los_Angeles,1840021638
772,Eden Prairie,Eden Prairie,MN,Minnesota,44.8488,-93.4595,64481,765.0,America/Chicago,1840007821
773,Noblesville,Noblesville,IN,Indiana,40.0355,-86.0042,64430,724.0,America/Indiana/Indianapolis,1840013891
774,Castro Valley,Castro Valley,CA,California,37.7088,-122.0626,64392,1475.0,America/Los_Angeles,1840017620
775,Port Charlotte,Port Charlotte,FL,Florida,26.9918,-82.114,64335,872.0,America/New_York,1840014200
776,Lake Elsinore,Lake Elsinore,CA,California,33.6847,-117.3344,64201,648.0,America/Los_Angeles,1840020560
777,Fairbanks,Fairbanks,AK,Alaska,64.8353,-147.6533,64160,382.0,America/Anchorage,1840023463
778,South Hill,South Hill,WA,Washington,47.1198,-122.2853,64104,1331.0,America/Los_Angeles,1840037886
779,Twin Rivers,Twin Rivers,NJ,New Jersey,40.2631,-74.4917,64012,2208.0,America/New_York,1840005474
780,Bellevue,Bellevue,NE,Nebraska,41.1485,-95.939,63970,1168.0,America/Chicago,1840007142
781,Casper,Casper,WY,Wyoming,42.842,-106.3208,63962,847.0,America/Denver,1840038324
782,Dublin,Dublin,CA,California,37.7161,-121.8963,63856,1618.0,America/Los_Angeles,1840018916
783,Dundalk,Dundalk,MD,Maryland,39.2704,-76.4942,63826,1882.0,America/New_York,1840005681
784,Port Orange,Port Orange,FL,Florida,29.1085,-81.0137,63815,919.0,America/New_York,1840015077
785,Haverhill,Haverhill,MA,Massachusetts,42.7838,-71.0871,63783,745.0,America/New_York,1840002450
786,Grand Forks,Grand Forks,ND,North Dakota,47.9214,-97.0884,63767,783.0,America/Chicago,1840000101
787,The Hammocks,The Hammocks,FL,Florida,25.67,-80.4482,63687,3117.0,America/New_York,1840029009
788,Pflugerville,Pflugerville,TX,Texas,30.4515,-97.6018,63610,961.0,America/Chicago,1840020892
789,Elmira,Elmira,NY,New York,42.0938,-76.8097,63404,1450.0,America/New_York,1840000472
790,Skokie,Skokie,IL,Illinois,42.036,-87.74,63300,2428.0,America/Chicago,1840011321
791,Sebring,Sebring,FL,Florida,27.477,-81.453,63287,398.0,America/New_York,1840015986
792,Brentwood,Brentwood,CA,California,37.9356,-121.719,63013,1636.0,America/Los_Angeles,1840018904
793,Encinitas,Encinitas,CA,California,33.0492,-117.261,62967,1275.0,America/Los_Angeles,1840020619
794,La Habra,La Habra,CA,California,33.9282,-117.9515,62787,3207.0,America/Los_Angeles,1840020585
795,Brentwood,Brentwood,NY,New York,40.7839,-73.2522,62743,2212.0,America/New_York,1840005021
796,Springfield,Springfield,OR,Oregon,44.0538,-122.9811,62729,1528.0,America/Los_Angeles,1840021263
797,Coon Rapids,Coon Rapids,MN,Minnesota,45.1755,-93.3094,62706,1070.0,America/Chicago,1840006714
798,Montebello,Montebello,CA,California,34.0155,-118.1108,62697,2906.0,America/Los_Angeles,1840020499
799,Waltham,Waltham,MA,Massachusetts,42.3889,-71.2423,62597,1896.0,America/New_York,1840000428
800,Pico Rivera,Pico Rivera,CA,California,33.9901,-118.0888,62507,2902.0,America/Los_Angeles,1840020506
801,North Miami,North Miami,FL,Florida,25.9008,-80.1686,62468,2860.0,America/New_York,1840015154
802,Council Bluffs,Council Bluffs,IA,Iowa,41.2369,-95.8516,62376,560.0,America/Chicago,1840007117
803,Doral,Doral,FL,Florida,25.8152,-80.3565,62367,1741.0,America/New_York,1840015148
804,Hamilton,Hamilton,OH,Ohio,39.3939,-84.5653,62162,1118.0,America/New_York,1840003803
805,Great Falls,Great Falls,MT,Montana,47.5022,-111.2996,62112,985.0,America/Denver,1840019839
806,Rocky Mount,Rocky Mount,NC,North Carolina,35.9685,-77.804,61952,466.0,America/New_York,1840014490
807,Chapel Hill,Chapel Hill,NC,North Carolina,35.9271,-79.0391,61912,1107.0,America/New_York,1840016152
808,Palm Harbor,Palm Harbor,FL,Florida,28.0847,-82.7481,61787,1375.0,America/New_York,1840014143
809,Moore,Moore,OK,Oklahoma,35.3293,-97.4757,61683,1085.0,America/Chicago,1840020449
810,Burnsville,Burnsville,MN,Minnesota,44.7648,-93.2793,61536,952.0,America/Chicago,1840006766
811,Spring,Spring,TX,Texas,30.0613,-95.383,61514,1056.0,America/Chicago,1840019615
812,Reston,Reston,VA,Virginia,38.9497,-77.3461,61418,1545.0,America/New_York,1840006025
813,National City,National City,CA,California,32.6654,-117.0983,61342,3246.0,America/Los_Angeles,1840020622
814,Taylor,Taylor,MI,Michigan,42.226,-83.2688,61164,999.0,America/Detroit,1840003965
815,Coconut Creek,Coconut Creek,FL,Florida,26.2803,-80.1842,60935,2106.0,America/New_York,1840015132
816,Millcreek,Millcreek,UT,Utah,40.6892,-111.8292,60828,1839.0,America/Denver,1840018744
817,Malden,Malden,MA,Massachusetts,42.4305,-71.0576,60710,4646.0,America/New_York,1840000430
818,Marietta,Marietta,GA,Georgia,33.9533,-84.5422,60687,999.0,America/New_York,1840015633
819,Leander,Leander,TX,Texas,30.5728,-97.8618,60613,624.0,America/Chicago,1840020877
820,Monterey Park,Monterey Park,CA,California,34.0497,-118.1326,60597,3049.0,America/Los_Angeles,1840020500
821,Lakewood,Lakewood,WA,Washington,47.1628,-122.5299,60564,1370.0,America/Los_Angeles,1840019860
822,Wesley Chapel,Wesley Chapel,FL,Florida,28.2106,-82.3238,60534,532.0,America/New_York,1840014118
823,Novi,Novi,MI,Michigan,42.4786,-83.4893,60439,771.0,America/Detroit,1840002423
824,Sanford,Sanford,FL,Florida,28.7891,-81.2757,60337,987.0,America/New_York,1840015958
825,La Mesa,La Mesa,CA,California,32.7703,-117.0204,60208,2556.0,America/Los_Angeles,1840020625
826,Bristol,Bristol,CT,Connecticut,41.6812,-72.9407,60039,877.0,America/New_York,1840004772
827,Taylorsville,Taylorsville,UT,Utah,40.6569,-111.9493,59926,2132.0,America/Denver,1840021387
828,West Allis,West Allis,WI,Wisconsin,43.0068,-88.0296,59861,2030.0,America/Chicago,1840003034
829,Cupertino,Cupertino,CA,California,37.3168,-122.0466,59799,2038.0,America/Los_Angeles,1840018950
830,Woodland,Woodland,CA,California,38.6712,-121.75,59759,1506.0,America/Los_Angeles,1840021485
831,Pontiac,Pontiac,MI,Michigan,42.6493,-83.2878,59714,1159.0,America/Detroit,1840002427
832,Meriden,Meriden,CT,Connecticut,41.5369,-72.7946,59512,968.0,America/New_York,1840004848
833,Gardena,Gardena,CA,California,33.8943,-118.3072,59401,3934.0,America/Los_Angeles,1840020482
834,Royal Oak,Royal Oak,MI,Michigan,42.5084,-83.1539,59256,1940.0,America/Detroit,1840002430
835,Bartlett,Bartlett,TN,Tennessee,35.2337,-89.8195,59252,708.0,America/Chicago,1840013472
836,St. Clair Shores,St. Clair Shores,MI,Michigan,42.4925,-82.8961,59184,1956.0,America/Detroit,1840003093
837,San Rafael,San Rafael,CA,California,37.9905,-122.5221,59178,1377.0,America/Los_Angeles,1840021513
838,Fountainebleau,Fountainebleau,FL,Florida,25.7723,-80.346,59174,5773.0,America/New_York,1840028983
839,Greenwood,Greenwood,IN,Indiana,39.6019,-86.1073,58784,813.0,America/Indiana/Indianapolis,1840007332
840,South Whittier,South Whittier,CA,California,33.9336,-118.0312,58616,4239.0,America/Los_Angeles,1840019209
841,Margate,Margate,FL,Florida,26.2466,-80.2119,58465,2576.0,America/New_York,1840015999
842,Orland Park,Orland Park,IL,Illinois,41.6075,-87.8619,58380,1023.0,America/Chicago,1840011310
843,Des Plaines,Des Plaines,IL,Illinois,42.0345,-87.9008,58316,1581.0,America/Chicago,1840007032
844,Medford,Medford,MA,Massachusetts,42.4234,-71.1087,58290,2778.0,America/New_York,1840000431
845,White Plains,White Plains,NY,New York,41.022,-73.7547,58171,2306.0,America/New_York,1840003477
846,Bowie,Bowie,MD,Maryland,38.9549,-76.7406,58158,1098.0,America/New_York,1840005970
847,Kokomo,Kokomo,IN,Indiana,40.464,-86.1277,58066,611.0,America/Indiana/Indianapolis,1840013844
848,Hendersonville,Hendersonville,TN,Tennessee,36.3063,-86.5997,57888,711.0,America/Chicago,1840014419
849,Huntington Park,Huntington Park,CA,California,33.98,-118.2167,57761,7414.0,America/Los_Angeles,1840019235
850,Towson,Towson,MD,Maryland,39.3944,-76.619,57542,1569.0,America/New_York,1840005695
851,St. Peters,St. Peters,MO,Missouri,38.7825,-90.6061,57536,989.0,America/Chicago,1840009721
852,Santee,Santee,CA,California,32.8554,-116.9851,57407,1340.0,America/Los_Angeles,1840021992
853,Midwest City,Midwest City,OK,Oklahoma,35.463,-97.371,57392,908.0,America/Chicago,1840020425
854,Richland,Richland,WA,Washington,46.2824,-119.2939,57353,564.0,America/Los_Angeles,1840019889
855,Bradenton,Bradenton,FL,Florida,27.4901,-82.5757,57346,1543.0,America/New_York,1840014173
856,Taunton,Taunton,MA,Massachusetts,41.9036,-71.0943,57327,473.0,America/New_York,1840003220
857,Casa Grande,Casa Grande,AZ,Arizona,32.9069,-111.7624,57318,199.0,America/Phoenix,1840019364
858,Huntersville,Huntersville,NC,North Carolina,35.406,-80.8716,57288,535.0,America/New_York,1840016349
859,Arcadia,Arcadia,CA,California,34.1342,-118.0373,57053,2015.0,America/Los_Angeles,1840019223
860,Palm Beach Gardens,Palm Beach Gardens,FL,Florida,26.8466,-80.1679,56979,374.0,America/New_York,1840015125
861,Shoreline,Shoreline,WA,Washington,47.7564,-122.3426,56835,1886.0,America/Los_Angeles,1840021118
862,Caldwell,Caldwell,ID,Idaho,43.6453,-116.6594,56734,958.0,America/Boise,1840018641
863,Euless,Euless,TX,Texas,32.8508,-97.08,56334,1349.0,America/Chicago,1840020693
864,Smyrna,Smyrna,GA,Georgia,33.8633,-84.5168,56333,1398.0,America/New_York,1840015634
865,Fountain Valley,Fountain Valley,CA,California,33.7105,-117.9514,56118,2388.0,America/Los_Angeles,1840020575
866,Tinley Park,Tinley Park,IL,Illinois,41.567,-87.8049,56082,1345.0,America/Chicago,1840011331
867,New Brunswick,New Brunswick,NJ,New Jersey,40.487,-74.445,55992,4131.0,America/New_York,1840001339
868,Commerce City,Commerce City,CO,Colorado,39.8641,-104.843,55891,599.0,America/Denver,1840018785
869,Diamond Bar,Diamond Bar,CA,California,33.9992,-117.8161,55870,1450.0,America/Los_Angeles,1840019244
870,Tamiami,Tamiami,FL,Florida,25.7556,-80.4016,55757,3054.0,America/New_York,1840029085
871,Kendale Lakes,Kendale Lakes,FL,Florida,25.7081,-80.4078,55732,2664.0,America/New_York,1840029045
872,Dearborn Heights,Dearborn Heights,MI,Michigan,42.3164,-83.2769,55630,1829.0,America/Detroit,1840003970
873,Lake Havasu City,Lake Havasu City,AZ,Arizona,34.5006,-114.3113,55463,462.0,America/Los_Angeles,1840021044
874,Parker,Parker,CO,Colorado,39.5084,-104.7753,55460,958.0,America/Denver,1840022454
875,Oak Lawn,Oak Lawn,IL,Illinois,41.7139,-87.7528,55432,2497.0,America/Chicago,1840011306
876,Blue Springs,Blue Springs,MO,Missouri,39.0124,-94.2721,55415,954.0,America/Chicago,1840007396
877,Hacienda Heights,Hacienda Heights,CA,California,33.997,-117.9727,55386,1917.0,America/Los_Angeles,1840017921
878,Highland,Highland,CA,California,34.1113,-117.165,55339,1150.0,America/Los_Angeles,1840020405
879,Kettering,Kettering,OH,Ohio,39.6956,-84.1494,55271,1139.0,America/New_York,1840003783
880,Carson City,Carson City,NV,Nevada,39.1511,-119.7476,55244,147.0,America/Los_Angeles,1840003826
881,Apex,Apex,NC,North Carolina,35.7237,-78.8743,55220,969.0,America/New_York,1840015355
882,Chicopee,Chicopee,MA,Massachusetts,42.1764,-72.5719,55186,930.0,America/New_York,1840000462
883,Manhattan,Manhattan,KS,Kansas,39.1886,-96.6048,55045,1066.0,America/Chicago,1840001589
884,Southaven,Southaven,MS,Mississippi,34.9514,-89.9786,55026,513.0,America/Chicago,1840015519
885,Berwyn,Berwyn,IL,Illinois,41.8433,-87.7909,54850,5423.0,America/Chicago,1840007027
886,Cathedral City,Cathedral City,CA,California,33.8362,-116.4642,54812,940.0,America/Los_Angeles,1840019293
887,Lenexa,Lenexa,KS,Kansas,38.9609,-94.8018,54804,621.0,America/Chicago,1840001639
888,Brookhaven,Brookhaven,GA,Georgia,33.8743,-84.3314,54727,1808.0,America/New_York,1840029224
889,Normal,Normal,IL,Illinois,40.5217,-88.9884,54699,1154.0,America/Chicago,1840009401
890,West Haven,West Haven,CT,Connecticut,41.2739,-72.9672,54666,1963.0,America/New_York,1840004852
891,Stonecrest,Stonecrest,GA,Georgia,33.6842,-84.1372,54665,564.0,America/New_York,1840029466
892,Westchester,Westchester,FL,Florida,25.7471,-80.3523,54470,2644.0,America/New_York,1840014241
893,Yucaipa,Yucaipa,CA,California,34.0336,-117.0429,54358,742.0,America/Los_Angeles,1840021732
894,Colton,Colton,CA,California,34.0538,-117.3255,54215,1346.0,America/Los_Angeles,1840019120
895,Mount Prospect,Mount Prospect,IL,Illinois,42.0641,-87.9375,54165,1951.0,America/Chicago,1840011300
896,Grapevine,Grapevine,TX,Texas,32.9343,-97.0742,54151,650.0,America/Chicago,1840020697
897,Tigard,Tigard,OR,Oregon,45.4237,-122.7845,54149,1650.0,America/Los_Angeles,1840021206
898,Paramount,Paramount,CA,California,33.8977,-118.1651,53949,4406.0,America/Los_Angeles,1840020504
899,Aspen Hill,Aspen Hill,MD,Maryland,39.0927,-77.0826,53869,2189.0,America/New_York,1840005825
900,Rosemead,Rosemead,CA,California,34.0689,-118.0823,53850,4028.0,America/Los_Angeles,1840020495
901,Elyria,Elyria,OH,Ohio,41.376,-82.106,53844,1013.0,America/New_York,1840000643
902,Novato,Novato,CA,California,38.092,-122.5575,53781,755.0,America/Los_Angeles,1840020260
903,Minnetonka,Minnetonka,MN,Minnesota,44.9322,-93.4598,53760,771.0,America/Chicago,1840007831
904,Leesburg,Leesburg,VA,Virginia,39.1057,-77.5544,53731,1673.0,America/New_York,1840005872
905,Apple Valley,Apple Valley,MN,Minnesota,44.7457,-93.2004,53728,1229.0,America/Chicago,1840006768
906,Aloha,Aloha,OR,Oregon,45.492,-122.8725,53724,2819.0,America/Los_Angeles,1840017414
907,Summerville,Summerville,SC,South Carolina,33.0016,-80.1799,53643,1050.0,America/New_York,1840016886
908,West Sacramento,West Sacramento,CA,California,38.5557,-121.5505,53574,963.0,America/Los_Angeles,1840021483
909,Pinellas Park,Pinellas Park,FL,Florida,27.8589,-82.7078,53486,1281.0,America/New_York,1840015112
910,Revere,Revere,MA,Massachusetts,42.4189,-71.004,53400,3614.0,America/New_York,1840000457
911,Severn,Severn,MD,Maryland,39.1355,-76.6956,53374,1123.0,America/New_York,1840005925
912,Hoboken,Hoboken,NJ,New Jersey,40.7452,-74.0281,53283,16455.0,America/New_York,1840003599
913,DeSoto,DeSoto,TX,Texas,32.5992,-96.8633,53170,948.0,America/Chicago,1840019441
914,Wheaton,Wheaton,IL,Illinois,41.8561,-88.1085,53157,1813.0,America/Chicago,1840010166
915,St. Cloud,St. Cloud,FL,Florida,28.2363,-81.2779,53132,806.0,America/New_York,1840015971
916,Palm Desert,Palm Desert,CA,California,33.7378,-116.3695,53087,764.0,America/Los_Angeles,1840020555
917,Peabody,Peabody,MA,Massachusetts,42.5335,-70.9725,53004,1260.0,America/New_York,1840000414
918,Milford city ,Milford city ,CT,Connecticut,41.2255,-73.0625,52902,932.0,America/New_York,1840028605
919,Delano,Delano,CA,California,35.7662,-119.2635,52821,1385.0,America/Los_Angeles,1840019151
920,Apopka,Apopka,FL,Florida,28.7015,-81.5316,52795,589.0,America/New_York,1840014093
921,West New York,West New York,NJ,New Jersey,40.7857,-74.0094,52778,20495.0,America/New_York,1840001035
922,Edina,Edina,MN,Minnesota,44.8914,-93.3602,52215,1304.0,America/Chicago,1840007822
923,Queen Creek,Queen Creek,AZ,Arizona,33.2454,-111.6173,52162,499.0,America/Phoenix,1840021944
924,Oak Park,Oak Park,IL,Illinois,41.8872,-87.7899,52102,4280.0,America/Chicago,1840011307
925,Bentonville,Bentonville,AR,Arkansas,36.3547,-94.2305,52070,594.0,America/Chicago,1840013319
926,Placentia,Placentia,CA,California,33.8807,-117.8553,52049,3039.0,America/Los_Angeles,1840020583
927,Kentwood,Kentwood,MI,Michigan,42.8852,-85.5926,51780,955.0,America/Detroit,1840002930
928,Perth Amboy,Perth Amboy,NJ,New Jersey,40.5202,-74.2724,51589,4272.0,America/New_York,1840001340
929,Burien,Burien,WA,Washington,47.4762,-122.3394,51588,1984.0,America/Los_Angeles,1840018420
930,Levittown,Levittown,NY,New York,40.7241,-73.5125,51266,2905.0,America/New_York,1840005270
931,Wylie,Wylie,TX,Texas,33.0362,-96.5161,51251,897.0,America/Chicago,1840022018
932,Grand Island,Grand Island,NE,Nebraska,40.9218,-98.3586,51250,658.0,America/Chicago,1840000956
933,Florissant,Florissant,MO,Missouri,38.7996,-90.3269,51220,1575.0,America/Chicago,1840008586
934,Wheaton,Wheaton,MD,Maryland,39.0492,-77.0573,51191,2865.0,America/New_York,1840031295
935,Glendora,Glendora,CA,California,34.1449,-117.8467,51087,1010.0,America/Los_Angeles,1840020484
936,Lacey,Lacey,WA,Washington,47.0462,-122.7933,50827,1140.0,America/Los_Angeles,1840019866
937,Smyrna,Smyrna,TN,Tennessee,35.9687,-86.5264,50820,594.0,America/Chicago,1840017758
938,Madison,Madison,AL,Alabama,34.7114,-86.7626,50717,644.0,America/Chicago,1840015524
939,Catalina Foothills,Catalina Foothills,AZ,Arizona,32.3046,-110.8838,50631,467.0,America/Phoenix,1840018110
940,Collierville,Collierville,TN,Tennessee,35.047,-89.6987,50596,537.0,America/Chicago,1840016403
941,Methuen Town,Methuen Town,MA,Massachusetts,42.734,-71.1889,50518,878.0,America/New_York,1840031195
942,Hoffman Estates,Hoffman Estates,IL,Illinois,42.064,-88.1468,50464,924.0,America/Chicago,1840011263
943,Country Club,Country Club,FL,Florida,25.9407,-80.3102,50436,4661.0,America/New_York,1840029029
944,Aliso Viejo,Aliso Viejo,CA,California,33.5792,-117.7289,50385,2808.0,America/Los_Angeles,1840019321
945,Maricopa,Maricopa,AZ,Arizona,33.0408,-112.0011,50358,457.0,America/Phoenix,1840020629
946,Galveston,Galveston,TX,Texas,29.2484,-94.8913,50307,473.0,America/Chicago,1840020970
947,Plainfield,Plainfield,NJ,New Jersey,40.6154,-74.4157,50252,3255.0,America/New_York,1840001090
948,Stillwater,Stillwater,OK,Oklahoma,36.1317,-97.0742,50183,650.0,America/Chicago,1840021675
949,Enid,Enid,OK,Oklahoma,36.4063,-97.87,50116,261.0,America/Chicago,1840020373
950,Lakewood,Lakewood,OH,Ohio,41.4822,-81.8008,50002,3483.0,America/New_York,1840000608
951,Coral Gables,Coral Gables,FL,Florida,25.7037,-80.2715,49937,1491.0,America/New_York,1840015147
952,Levittown,Levittown,PA,Pennsylvania,40.1533,-74.8531,49921,1871.0,America/New_York,1840005408
953,Rowland Heights,Rowland Heights,CA,California,33.9716,-117.8912,49914,1473.0,America/Los_Angeles,1840019211
954,Twin Falls,Twin Falls,ID,Idaho,42.5645,-114.4613,49819,993.0,America/Boise,1840021301
955,Little Elm,Little Elm,TX,Texas,33.1858,-96.9295,49792,1064.0,America/Chicago,1840020640
956,Kannapolis,Kannapolis,NC,North Carolina,35.4764,-80.6408,49788,587.0,America/New_York,1840014560
957,Poway,Poway,CA,California,32.9871,-117.0201,49780,491.0,America/Los_Angeles,1840020624
958,North Bethesda,North Bethesda,MD,Maryland,39.0393,-77.1191,49719,2163.0,America/New_York,1840031494
959,Mishawaka,Mishawaka,IN,Indiana,41.6742,-86.1666,49675,1073.0,America/Indiana/Indianapolis,1840014695
960,West Lafayette,West Lafayette,IN,Indiana,40.4432,-86.9238,49668,1411.0,America/Indiana/Indianapolis,1840010430
961,Azusa,Azusa,CA,California,34.1386,-117.9124,49584,1981.0,America/Los_Angeles,1840019226
962,Dunwoody,Dunwoody,GA,Georgia,33.9418,-84.3122,49466,1466.0,America/New_York,1840022929
963,Cerritos,Cerritos,CA,California,33.8678,-118.0686,49388,2185.0,America/Los_Angeles,1840019215
964,Wilson,Wilson,NC,North Carolina,35.7311,-77.9284,49310,613.0,America/New_York,1840015383
965,Downers Grove,Downers Grove,IL,Illinois,41.7949,-88.0172,49263,1298.0,America/Chicago,1840011404
966,Troy,Troy,NY,New York,42.7354,-73.6751,49253,1836.0,America/New_York,1840003087
967,Portage,Portage,MI,Michigan,42.2,-85.5906,49224,588.0,America/Detroit,1840003183
968,Cuyahoga Falls,Cuyahoga Falls,OH,Ohio,41.1641,-81.5207,49191,736.0,America/New_York,1840000795
969,Bedford,Bedford,TX,Texas,32.8464,-97.135,49145,1891.0,America/Chicago,1840019424
970,Cypress,Cypress,CA,California,33.8171,-118.0386,49137,2868.0,America/Los_Angeles,1840019327
971,Lawrence,Lawrence,IN,Indiana,39.8674,-85.9904,49020,939.0,America/Indiana/Indianapolis,1840008434
972,Murray,Murray,UT,Utah,40.6498,-111.8874,48969,1534.0,America/Denver,1840020159
973,St. Louis Park,St. Louis Park,MN,Minnesota,44.9488,-93.3649,48874,1775.0,America/Chicago,1840008935
974,Florin,Florin,CA,California,38.4832,-121.4043,48839,2164.0,America/Los_Angeles,1840017581
975,Columbus,Columbus,IN,Indiana,39.2093,-85.9183,48820,670.0,America/Indiana/Indianapolis,1840013714
976,San Jacinto,San Jacinto,CA,California,33.797,-116.9916,48786,725.0,America/Los_Angeles,1840021936
977,North Highlands,North Highlands,CA,California,38.6713,-121.3721,48660,2132.0,America/Los_Angeles,1840018841
978,Draper,Draper,UT,Utah,40.4957,-111.8605,48594,626.0,America/Denver,1840018747
979,McLean,McLean,VA,Virginia,38.9436,-77.1943,48566,756.0,America/New_York,1840006018
980,Tuckahoe,Tuckahoe,VA,Virginia,37.5878,-77.5858,48517,916.0,America/New_York,1840006395
981,Antelope,Antelope,CA,California,38.7153,-121.361,48468,2737.0,America/Los_Angeles,1840022490
982,East Lansing,East Lansing,MI,Michigan,42.748,-84.4836,48437,1392.0,America/Detroit,1840003101
983,Palm Springs,Palm Springs,CA,California,33.8017,-116.5382,48390,197.0,America/Los_Angeles,1840020556
984,Ceres,Ceres,CA,California,37.5952,-120.962,48355,1965.0,America/Los_Angeles,1840018910
985,University,University,FL,Florida,28.0771,-82.4335,48339,2948.0,America/New_York,1840073852
986,Cedar Hill,Cedar Hill,TX,Texas,32.581,-96.9591,48337,521.0,America/Chicago,1840019433
987,Bozeman,Bozeman,MT,Montana,45.6833,-111.0558,48330,905.0,America/Denver,1840018509
988,Rancho Santa Margarita,Rancho Santa Margarita,CA,California,33.6318,-117.5988,48280,1445.0,America/Los_Angeles,1840020584
989,Beaumont,Beaumont,CA,California,33.9076,-116.9766,48272,614.0,America/Los_Angeles,1840019298
990,La Mirada,La Mirada,CA,California,33.9025,-118.0093,48260,2382.0,America/Los_Angeles,1840020512
991,Lincoln,Lincoln,CA,California,38.8774,-121.2937,48150,769.0,America/Los_Angeles,1840020231
992,Newark,Newark,CA,California,37.5201,-122.0307,48148,1335.0,America/Los_Angeles,1840020295
993,Wauwatosa,Wauwatosa,WI,Wisconsin,43.0616,-88.0347,48143,1405.0,America/Chicago,1840003033
994,Niagara Falls,Niagara Falls,NY,New York,43.0921,-79.0147,47978,1315.0,America/Toronto,1840000371
995,Jeffersonville,Jeffersonville,IN,Indiana,38.3376,-85.7026,47932,543.0,America/Kentucky/Louisville,1840008642
996,Minot,Minot,ND,North Dakota,48.2375,-101.278,47834,677.0,America/Chicago,1840000053
997,Dublin,Dublin,OH,Ohio,40.1112,-83.1454,47824,748.0,America/New_York,1840008389
998,Covina,Covina,CA,California,34.0903,-117.8818,47787,2622.0,America/Los_Angeles,1840019241
999,Roswell,Roswell,NM,New Mexico,33.373,-104.5294,47751,620.0,America/Denver,1840020549
1000,Chesterfield,Chesterfield,MO,Missouri,38.6589,-90.5803,47603,576.0,America/Chicago,1840007446
1001,East Providence,East Providence,RI,Rhode Island,41.8065,-71.3565,47442,1378.0,America/New_York,1840003288
1002,Ocoee,Ocoee,FL,Florida,28.5796,-81.5332,47433,1174.0,America/New_York,1840015098
1003,San Luis Obispo,San Luis Obispo,CA,California,35.2669,-120.669,47402,1375.0,America/Los_Angeles,1840021734
1004,Beavercreek,Beavercreek,OH,Ohio,39.731,-84.0624,47343,687.0,America/New_York,1840007312
1005,Glenview,Glenview,IL,Illinois,42.0825,-87.8214,47218,1302.0,America/Chicago,1840011280
1006,Marana,Marana,AZ,Arizona,32.4355,-111.1558,47164,150.0,America/Phoenix,1840023057
1007,Roseville,Roseville,MI,Michigan,42.5074,-82.9369,47160,1851.0,America/Detroit,1840003092
1008,Burleson,Burleson,TX,Texas,32.517,-97.3344,47151,644.0,America/Chicago,1840019467
1009,East Honolulu,East Honolulu,HI,Hawaii,21.2975,-157.7211,47132,791.0,Pacific/Honolulu,1840039181
1010,El Dorado Hills,El Dorado Hills,CA,California,38.675,-121.049,47107,375.0,America/Los_Angeles,1840017565
1011,Mentor,Mentor,OH,Ohio,41.6893,-81.3362,47075,653.0,America/New_York,1840000539
1012,Keller,Keller,TX,Texas,32.9335,-97.2256,46885,986.0,America/Chicago,1840019428
1013,Euclid,Euclid,OH,Ohio,41.5903,-81.5188,46861,1698.0,America/New_York,1840000600
1014,Salina,Salina,KS,Kansas,38.8136,-97.6143,46706,699.0,America/Chicago,1840001647
1015,Elmhurst,Elmhurst,IL,Illinois,41.8973,-87.9432,46571,1759.0,America/Chicago,1840008142
1016,Middletown,Middletown,CT,Connecticut,41.5476,-72.6549,46406,436.0,America/New_York,1840004844
1017,Bothell,Bothell,WA,Washington,47.7735,-122.2044,46386,1313.0,America/Los_Angeles,1840018419
1018,Titusville,Titusville,FL,Florida,28.5727,-80.8193,46307,611.0,America/New_York,1840015962
1019,Everett,Everett,MA,Massachusetts,42.4064,-71.0545,46275,5230.0,America/New_York,1840000425
1020,Potomac,Potomac,MD,Maryland,39.0141,-77.1943,46256,710.0,America/New_York,1840005837
1021,Littleton,Littleton,CO,Colorado,39.5915,-105.0188,46208,1412.0,America/Denver,1840020213
1022,Horizon West,Horizon West,FL,Florida,28.4417,-81.6146,46204,544.0,America/New_York,1840038926
1023,Biloxi,Biloxi,MS,Mississippi,30.4426,-88.9514,46042,414.0,America/Chicago,1840013948
1024,Fort Pierce,Fort Pierce,FL,Florida,27.4255,-80.3431,45855,744.0,America/New_York,1840014178
1025,Kyle,Kyle,TX,Texas,29.9932,-97.8852,45828,569.0,America/Chicago,1840020907
1026,Coachella,Coachella,CA,California,33.6905,-116.143,45658,586.0,America/Los_Angeles,1840019294
1027,Oro Valley,Oro Valley,AZ,Arizona,32.4208,-110.9767,45303,501.0,America/Phoenix,1840023058
1028,Hilo,Hilo,HI,Hawaii,19.6883,-155.0863,45248,325.0,Pacific/Honolulu,1840023193
1029,Herriman,Herriman,UT,Utah,40.4899,-112.017,45211,806.0,America/Denver,1840020155
1030,Rockwall,Rockwall,TX,Texas,32.9169,-96.4374,45168,591.0,America/Chicago,1840020717
1031,Pearl City,Pearl City,HI,Hawaii,21.4031,-157.9566,45159,1911.0,Pacific/Honolulu,1840023251
1032,Lake Ridge,Lake Ridge,VA,Virginia,38.6847,-77.3066,45111,1910.0,America/New_York,1840006099
1033,Attleboro,Attleboro,MA,Massachusetts,41.9311,-71.295,45023,649.0,America/New_York,1840000496
1034,Sicklerville,Sicklerville,NJ,New Jersey,39.7452,-74.9934,44978,1000.0,America/New_York,1840033409
1035,Farmington,Farmington,NM,New Mexico,36.7555,-108.1823,44967,503.0,America/Denver,1840020349
1036,Oakland Park,Oakland Park,FL,Florida,26.178,-80.1528,44950,2303.0,America/New_York,1840015139
1037,Danville,Danville,CA,California,37.8121,-121.9698,44933,959.0,America/Los_Angeles,1840021532
1038,Winter Garden,Winter Garden,FL,Florida,28.5421,-81.5967,44888,1064.0,America/New_York,1840015965
1039,Plainfield,Plainfield,IL,Illinois,41.6207,-88.2253,44857,700.0,America/Chicago,1840011495
1040,Morgan Hill,Morgan Hill,CA,California,37.1325,-121.6419,44789,1336.0,America/Los_Angeles,1840020331
1041,Strongsville,Strongsville,OH,Ohio,41.3128,-81.8313,44675,700.0,America/New_York,1840003415
1042,San Bruno,San Bruno,CA,California,37.6256,-122.4313,44663,3141.0,America/Los_Angeles,1840021549
1043,Whitney,Whitney,NV,Nevada,36.1008,-115.0379,44488,2522.0,America/Los_Angeles,1840033834
1044,Haltom City,Haltom City,TX,Texas,32.8176,-97.2707,44300,1385.0,America/Chicago,1840020698
1045,Hackensack,Hackensack,NJ,New Jersey,40.8891,-74.0462,44266,4077.0,America/New_York,1840003556
1046,Sayreville,Sayreville,NJ,New Jersey,40.4656,-74.3237,44243,1079.0,America/New_York,1840001332
1047,North Lauderdale,North Lauderdale,FL,Florida,26.2113,-80.2209,44189,3691.0,America/New_York,1840015138
1048,Brea,Brea,CA,California,33.9254,-117.8655,44182,1401.0,America/Los_Angeles,1840019323
